{"resultCode":0,"resultDescription":"Resultado de la operacion Correcta","resultValues":[{"line":4,"secDetail":10,"orderDetail":"1","node":1199,"distance":0,"distancePreviousStop":0,"name":"INTERCAMBIADOR CIUDAD LINEAL","latitude":40.438156738528,"longitude":-3.6387307165792},{"line":4,"secDetail":10,"orderDetail":"1","node":240,"distance":458,"distancePreviousStop":458,"name":"HNOS.GARCIA NOBLEJAS-VITAL AZA","latitude":40.434864962649,"longitude":-3.6361010479589},{"line":4,"secDetail":10,"orderDetail":"1","node":242,"distance":752,"distancePreviousStop":294,"name":"HNOS.GARCIA NOBLEJAS-ASCAO","latitude":40.432522564407,"longitude":-3.6344755890243},{"line":4,"secDetail":10,"orderDetail":"1","node":244,"distance":1153,"distancePreviousStop":401,"name":"HNOS.GARCIA NOBLEJAS-LUIS CAMPOS","latitude":40.429391265454,"longitude":-3.632135505488},{"line":4,"secDetail":10,"orderDetail":"1","node":246,"distance":1371,"distancePreviousStop":218,"name":"HNOS.GARCIA NOBLEJAS-CASTILLO DE AREVALO","latitude":40.427677343032,"longitude":-3.630893427558},{"line":4,"secDetail":10,"orderDetail":"1","node":4708,"distance":1604,"distancePreviousStop":233,"name":"HNOS.GARCIA NOBLEJAS-GANDHI","latitude":40.425865006238,"longitude":-3.6295231803248},{"line":4,"secDetail":10,"orderDetail":"1","node":250,"distance":1877,"distancePreviousStop":273,"name":"HNOS.GARCIA NOBLEJAS-FCO.L.CABALLERO","latitude":40.423674833358,"longitude":-3.628050472689},{"line":4,"secDetail":10,"orderDetail":"1","node":1200,"distance":2236,"distancePreviousStop":359,"name":"ARCOS DE JALON-POBLADURA DEL VALLE","latitude":40.422049409097,"longitude":-3.6254302574419},{"line":4,"secDetail":10,"orderDetail":"1","node":1202,"distance":2615,"distancePreviousStop":379,"name":"ARCOS DE JALON-SAN ROMAN DEL VALLE","latitude":40.420536848423,"longitude":-3.621915358782},{"line":4,"secDetail":10,"orderDetail":"1","node":1204,"distance":3000,"distancePreviousStop":385,"name":"ARCOS DE JALON-AMPOSTA","latitude":40.422664186159,"longitude":-3.6183278590798},{"line":4,"secDetail":10,"orderDetail":"1","node":1206,"distance":3281,"distancePreviousStop":281,"name":"ARCOS DE JALON-ALBERICIA","latitude":40.424344161981,"longitude":-3.6158323613435},{"line":4,"secDetail":10,"orderDetail":"1","node":1208,"distance":3652,"distancePreviousStop":371,"name":"ALBERICIA-AV.GUADALAJARA","latitude":40.422539788773,"longitude":-3.6129278793334},{"line":4,"secDetail":10,"orderDetail":"1","node":4638,"distance":3961,"distancePreviousStop":309,"name":"AQUITANIA-AV.CANILLEJAS A VICALVARO","latitude":40.420897846372,"longitude":-3.6116634933536},{"line":4,"secDetail":10,"orderDetail":"1","node":1210,"distance":4209,"distancePreviousStop":248,"name":"AV.CANILLEJAS A VICALVARO-TOSCANA","latitude":40.419440896217,"longitude":-3.6111905919394},{"line":4,"secDetail":10,"orderDetail":"1","node":4612,"distance":4560,"distancePreviousStop":351,"name":"AV.CANILLEJAS A VICALVARO-M40","latitude":40.416785248512,"longitude":-3.6108129540823},{"line":4,"secDetail":10,"orderDetail":"1","node":1212,"distance":5357,"distancePreviousStop":797,"name":"PZA.DE LA VICALVARADA","latitude":40.409915243248,"longitude":-3.6100861240805},{"line":4,"secDetail":10,"orderDetail":"1","node":1213,"distance":5571,"distancePreviousStop":214,"name":"P\u00ba ARTILLEROS-CALAHORRA","latitude":40.408124320533,"longitude":-3.6097328907059},{"line":4,"secDetail":10,"orderDetail":"1","node":1076,"distance":5769,"distancePreviousStop":198,"name":"CALAHORRA N\u00ba 12","latitude":40.407765277907,"longitude":-3.6111898472725},{"line":4,"secDetail":10,"orderDetail":"1","node":1066,"distance":6091,"distancePreviousStop":322,"name":"AV.DAROCA-CALAHORRA","latitude":40.406223586497,"longitude":-3.6131098223177},{"line":4,"secDetail":10,"orderDetail":"1","node":1067,"distance":6403,"distancePreviousStop":312,"name":"AV.DAROCA N\u00ba 338","latitude":40.404337123052,"longitude":-3.6103822270431},{"line":4,"secDetail":10,"orderDetail":"1","node":4546,"distance":6569,"distancePreviousStop":166,"name":"SAN CIPRIANO-P\u00ba ARTILLEROS","latitude":40.404049840833,"longitude":-3.6084823053512},{"line":4,"secDetail":10,"orderDetail":"1","node":4552,"distance":6901,"distancePreviousStop":332,"name":"SAN CIPRIANO-JARDIN DE LA DUQUESA","latitude":40.403872175344,"longitude":-3.604568215797},{"line":4,"secDetail":10,"orderDetail":"1","node":4555,"distance":7117,"distancePreviousStop":216,"name":"SAN CIPRIANO-CA\u00d1OS DE SAN PEDRO","latitude":40.403777292257,"longitude":-3.6020336795845},{"line":4,"secDetail":10,"orderDetail":"1","node":5321,"distance":7370,"distancePreviousStop":253,"name":"SAN CIPRIANO-MINERVA","latitude":40.403269107677,"longitude":-3.599273934863},{"line":4,"secDetail":10,"orderDetail":"1","node":1073,"distance":7816,"distancePreviousStop":446,"name":"PUERTA DE ARGANDA","latitude":40.401222298044,"longitude":-3.5961306275524},{"line":4,"secDetail":20,"orderDetail":"1","node":1073,"distance":0,"distancePreviousStop":0,"name":"PUERTA DE ARGANDA","latitude":40.401222298044,"longitude":-3.5961306275524},{"line":4,"secDetail":20,"orderDetail":"1","node":5322,"distance":384,"distancePreviousStop":384,"name":"SAN CIPRIANO-MINERVA","latitude":40.403431768877,"longitude":-3.5991775658002},{"line":4,"secDetail":20,"orderDetail":"1","node":4556,"distance":655,"distancePreviousStop":271,"name":"SAN CIPRIANO-CA\u00d1OS DE SAN PEDRO","latitude":40.404019603065,"longitude":-3.6022126079823},{"line":4,"secDetail":20,"orderDetail":"1","node":1069,"distance":867,"distancePreviousStop":212,"name":"SAN CIPRIANO-JARDIN DE LA DUQUESA","latitude":40.404132869069,"longitude":-3.6046766101275},{"line":4,"secDetail":20,"orderDetail":"1","node":1074,"distance":1194,"distancePreviousStop":327,"name":"SAN CIPRIANO-P\u00ba ARTILLEROS","latitude":40.404319973482,"longitude":-3.6085083072843},{"line":4,"secDetail":20,"orderDetail":"1","node":4647,"distance":1383,"distancePreviousStop":189,"name":"AV.DAROCA-P\u00ba ARTILLEROS","latitude":40.404606819689,"longitude":-3.6104907258966},{"line":4,"secDetail":20,"orderDetail":"1","node":4549,"distance":1693,"distancePreviousStop":310,"name":"AV.DAROCA-CALAHORRA","latitude":40.406565848713,"longitude":-3.613124713174},{"line":4,"secDetail":20,"orderDetail":"1","node":1065,"distance":1878,"distancePreviousStop":185,"name":"AV.DAROCA-CASALARREINA","latitude":40.407728824998,"longitude":-3.6146673530288},{"line":4,"secDetail":20,"orderDetail":"1","node":1214,"distance":2059,"distancePreviousStop":181,"name":"CASALARREINA-AV.DAROCA","latitude":40.408652078746,"longitude":-3.6138507720456},{"line":4,"secDetail":20,"orderDetail":"1","node":1215,"distance":2355,"distancePreviousStop":296,"name":"CASALARREINA-P\u00ba ARTILLEROS","latitude":40.409308286102,"longitude":-3.6107217771209},{"line":4,"secDetail":20,"orderDetail":"1","node":4613,"distance":3361,"distancePreviousStop":1006,"name":"AV.CANILLEJAS A VICALVARO-M40","latitude":40.416849304391,"longitude":-3.6106249434555},{"line":4,"secDetail":20,"orderDetail":"1","node":1211,"distance":3690,"distancePreviousStop":329,"name":"AV.CANILLEJAS A VICALVARO-TOSCANA","latitude":40.419532538894,"longitude":-3.6108967378507},{"line":4,"secDetail":20,"orderDetail":"1","node":4611,"distance":3928,"distancePreviousStop":238,"name":"AV.CANILLEJAS A VICALVARO-SUECIA","latitude":40.421657180564,"longitude":-3.6111752873721},{"line":4,"secDetail":20,"orderDetail":"1","node":1209,"distance":4183,"distancePreviousStop":255,"name":"ALBERICIA-AV.GUADALAJARA","latitude":40.422703316669,"longitude":-3.6126700300339},{"line":4,"secDetail":20,"orderDetail":"1","node":1207,"distance":4554,"distancePreviousStop":371,"name":"ARCOS DE JALON-ALBERICIA","latitude":40.42452332742,"longitude":-3.61602260673},{"line":4,"secDetail":20,"orderDetail":"1","node":1205,"distance":4852,"distancePreviousStop":298,"name":"ARCOS DE JALON-AMPOSTA","latitude":40.422734740873,"longitude":-3.6186114146082},{"line":4,"secDetail":20,"orderDetail":"1","node":1203,"distance":5212,"distancePreviousStop":360,"name":"ARCOS DE JALON-SAN ROMAN DEL VALLE","latitude":40.420770752578,"longitude":-3.6219764506193},{"line":4,"secDetail":20,"orderDetail":"1","node":1201,"distance":5592,"distancePreviousStop":380,"name":"ARCOS DE JALON-POBLADURA DEL VALLE","latitude":40.422141342801,"longitude":-3.6250892630389},{"line":4,"secDetail":20,"orderDetail":"1","node":252,"distance":5962,"distancePreviousStop":370,"name":"HNOS.GARCIA NOBLEJAS-AV.ARCENTALES","latitude":40.423893725608,"longitude":-3.6275574087017},{"line":4,"secDetail":20,"orderDetail":"1","node":248,"distance":6285,"distancePreviousStop":323,"name":"HNOS.GARCIA NOBLEJAS-CASTILLO UCLES","latitude":40.426378438593,"longitude":-3.6295373982624},{"line":4,"secDetail":20,"orderDetail":"1","node":247,"distance":6494,"distancePreviousStop":209,"name":"HNOS.GARCIA NOBLEJAS-CASTILLO DE AREVALO","latitude":40.428020501512,"longitude":-3.6307433796682},{"line":4,"secDetail":20,"orderDetail":"1","node":245,"distance":6667,"distancePreviousStop":173,"name":"HNOS.GARCIA NOBLEJAS-VALDECANILLAS","latitude":40.4294301344,"longitude":-3.6316171508418},{"line":4,"secDetail":20,"orderDetail":"1","node":243,"distance":7053,"distancePreviousStop":386,"name":"HNOS.GARCIA NOBLEJAS-JULIAN CAMARILLO","latitude":40.432472199645,"longitude":-3.6338031090357},{"line":4,"secDetail":20,"orderDetail":"1","node":241,"distance":7382,"distancePreviousStop":329,"name":"HNOS.GARCIA NOBLEJAS-VITAL AZA","latitude":40.435028995699,"longitude":-3.6357606827963},{"line":4,"secDetail":20,"orderDetail":"1","node":1199,"distance":7809,"distancePreviousStop":427,"name":"INTERCAMBIADOR CIUDAD LINEAL","latitude":40.438156738528,"longitude":-3.6387307165792},{"line":5,"secDetail":10,"orderDetail":"1","node":95,"distance":0,"distancePreviousStop":0,"name":"PUERTA DEL SOL","latitude":40.416894385199,"longitude":-3.7026206219596},{"line":5,"secDetail":10,"orderDetail":"1","node":91,"distance":420,"distancePreviousStop":420,"name":"ALCALA-CEDACEROS","latitude":40.41792620378,"longitude":-3.6988559725528},{"line":5,"secDetail":10,"orderDetail":"1","node":90,"distance":664,"distancePreviousStop":244,"name":"ALCALA-CIRCULO DE BELLAS ARTES","latitude":40.418573542308,"longitude":-3.6960856213591},{"line":5,"secDetail":10,"orderDetail":"1","node":72,"distance":1059,"distancePreviousStop":395,"name":"P\u00ba RECOLETOS-PZA.DE CIBELES","latitude":40.420263812809,"longitude":-3.6921518954624},{"line":5,"secDetail":10,"orderDetail":"1","node":65,"distance":1473,"distancePreviousStop":414,"name":"P\u00ba RECOLETOS-BIBLIOTECA NACIONAL","latitude":40.423787005419,"longitude":-3.6905282512026},{"line":5,"secDetail":10,"orderDetail":"1","node":66,"distance":1772,"distancePreviousStop":299,"name":"P\u00ba CASTELLANA-PZA.DE COLON","latitude":40.426034088731,"longitude":-3.6898816486698},{"line":5,"secDetail":10,"orderDetail":"1","node":62,"distance":2127,"distancePreviousStop":355,"name":"P\u00ba CASTELLANA-MQUES.VILLAMAGNA","latitude":40.429164972366,"longitude":-3.6890789811533},{"line":5,"secDetail":10,"orderDetail":"1","node":60,"distance":2563,"distancePreviousStop":436,"name":"P\u00ba CASTELLANA-P\u00ba EDUARDO DATO","latitude":40.43315284451,"longitude":-3.6880833757818},{"line":5,"secDetail":10,"orderDetail":"1","node":530,"distance":2921,"distancePreviousStop":358,"name":"GRAL.MTNEZ.CAMPOS-FORTUNY","latitude":40.43529436877,"longitude":-3.6900305239606},{"line":5,"secDetail":10,"orderDetail":"1","node":1893,"distance":3127,"distancePreviousStop":206,"name":"GRAL.MARTINEZ CAMPOS-ZURBANO","latitude":40.435251889534,"longitude":-3.6926144693268},{"line":5,"secDetail":10,"orderDetail":"1","node":528,"distance":3352,"distancePreviousStop":225,"name":"GRAL.MTNEZ.CAMPOS-FDEZ.DE LA HOZ","latitude":40.435199932988,"longitude":-3.6952666958452},{"line":5,"secDetail":10,"orderDetail":"1","node":1895,"distance":3561,"distancePreviousStop":209,"name":"GRAL.MARTINEZ CAMPOS-ALONSO CANO","latitude":40.435113020881,"longitude":-3.6977299161764},{"line":5,"secDetail":10,"orderDetail":"1","node":1896,"distance":4008,"distancePreviousStop":447,"name":"ALONSO CANO-JOSE ABASCAL","latitude":40.438725794076,"longitude":-3.6976965219529},{"line":5,"secDetail":10,"orderDetail":"1","node":1898,"distance":4313,"distancePreviousStop":305,"name":"ALONSO CANO-RIOS ROSAS","latitude":40.441474903047,"longitude":-3.6974655395352},{"line":5,"secDetail":10,"orderDetail":"1","node":1900,"distance":4619,"distancePreviousStop":306,"name":"ALONSO CANO-MARIA GUZMAN","latitude":40.444223868176,"longitude":-3.697258121656},{"line":5,"secDetail":10,"orderDetail":"1","node":1902,"distance":4829,"distancePreviousStop":210,"name":"ALONSO CANO-R.FDEZ.VILLAVERDE","latitude":40.446107747578,"longitude":-3.6970889187647},{"line":5,"secDetail":10,"orderDetail":"1","node":3380,"distance":5003,"distancePreviousStop":174,"name":"GRAL.MOSCARDO-HERNANI","latitude":40.447675964988,"longitude":-3.6969777659665},{"line":5,"secDetail":10,"orderDetail":"1","node":1904,"distance":5144,"distancePreviousStop":141,"name":"GRAL.MOSCARDO-BASILICA","latitude":40.448929203223,"longitude":-3.6968114681727},{"line":5,"secDetail":10,"orderDetail":"1","node":1906,"distance":5482,"distancePreviousStop":338,"name":"GRAL.MOSCARDO-GRAL.PERON","latitude":40.451975872226,"longitude":-3.6965351422598},{"line":5,"secDetail":10,"orderDetail":"1","node":1909,"distance":5830,"distancePreviousStop":348,"name":"GRAL.VARELA-GRAL.ORGAZ","latitude":40.454334279371,"longitude":-3.6953577499932},{"line":5,"secDetail":10,"orderDetail":"1","node":1910,"distance":6013,"distancePreviousStop":183,"name":"GRAL.VARELA-GRAL.YAGUE","latitude":40.45597485781,"longitude":-3.6951977586028},{"line":5,"secDetail":10,"orderDetail":"1","node":1912,"distance":6266,"distancePreviousStop":253,"name":"GRAL.YAGUE-CAPITAN HAYA","latitude":40.456223235683,"longitude":-3.6928415752224},{"line":5,"secDetail":10,"orderDetail":"1","node":4828,"distance":6521,"distancePreviousStop":255,"name":"P\u00ba CASTELLANA-GRAL.YAGUE","latitude":40.45593436855,"longitude":-3.6899267511662},{"line":5,"secDetail":10,"orderDetail":"1","node":35,"distance":6937,"distancePreviousStop":416,"name":"PZA.DE CUZCO","latitude":40.459800355582,"longitude":-3.6897292347616},{"line":5,"secDetail":10,"orderDetail":"1","node":33,"distance":7154,"distancePreviousStop":217,"name":"P\u00ba CASTELLANA-ROSARIO PINO","latitude":40.461756393088,"longitude":-3.6895428344984},{"line":5,"secDetail":10,"orderDetail":"1","node":1485,"distance":7635,"distancePreviousStop":481,"name":"PZA.DE CASTILLA","latitude":40.465907004543,"longitude":-3.6884470242266},{"line":5,"secDetail":10,"orderDetail":"1","node":1914,"distance":8050,"distancePreviousStop":415,"name":"ENRIQUE LARRETA-AGUSTIN DE FOXA","latitude":40.468206882105,"longitude":-3.6864923509655},{"line":5,"secDetail":10,"orderDetail":"1","node":1915,"distance":8297,"distancePreviousStop":247,"name":"AGUSTIN DE FOXA-JOSE VASCONCELOS","latitude":40.469869124622,"longitude":-3.6857153997841},{"line":5,"secDetail":10,"orderDetail":"1","node":1917,"distance":8787,"distancePreviousStop":490,"name":"ESTACION DE CHAMARTIN","latitude":40.471708707819,"longitude":-3.682370950127},{"line":5,"secDetail":20,"orderDetail":"1","node":1917,"distance":0,"distancePreviousStop":0,"name":"ESTACION DE CHAMARTIN","latitude":40.471708707819,"longitude":-3.682370950127},{"line":5,"secDetail":20,"orderDetail":"1","node":1916,"distance":383,"distancePreviousStop":383,"name":"AGUSTIN FOXA-JOSE VASCONCELOS","latitude":40.470130155839,"longitude":-3.6857534434239},{"line":5,"secDetail":20,"orderDetail":"1","node":1528,"distance":909,"distancePreviousStop":526,"name":"P\u00ba CASTELLANA-PZA.CASTILLA","latitude":40.467251642556,"longitude":-3.6895695456509},{"line":5,"secDetail":20,"orderDetail":"1","node":28,"distance":1184,"distancePreviousStop":275,"name":"P\u00ba CASTELLANA-JUZGADOS","latitude":40.464962404622,"longitude":-3.6897348565481},{"line":5,"secDetail":20,"orderDetail":"1","node":32,"distance":1539,"distancePreviousStop":355,"name":"P\u00ba CASTELLANA-ROSARIO PINO","latitude":40.461780687221,"longitude":-3.6900007169473},{"line":5,"secDetail":20,"orderDetail":"1","node":34,"distance":1943,"distancePreviousStop":404,"name":"PZA.DE CUZCO","latitude":40.458229246005,"longitude":-3.690326458192},{"line":5,"secDetail":20,"orderDetail":"1","node":36,"distance":2141,"distancePreviousStop":198,"name":"P\u00ba CASTELLANA-GRAL.YAGUE","latitude":40.456516557986,"longitude":-3.6904940900788},{"line":5,"secDetail":20,"orderDetail":"1","node":1913,"distance":2318,"distancePreviousStop":177,"name":"GRAL.YAGUE-CAPITAN HAYA","latitude":40.456397008467,"longitude":-3.6924069916237},{"line":5,"secDetail":20,"orderDetail":"1","node":1911,"distance":2539,"distancePreviousStop":221,"name":"ORENSE-GRAL.YAGUE","latitude":40.456112450168,"longitude":-3.694788756142},{"line":5,"secDetail":20,"orderDetail":"1","node":1908,"distance":2828,"distancePreviousStop":289,"name":"ORENSE-PALACIO DE CONGRESOS","latitude":40.453516153288,"longitude":-3.6950780713514},{"line":5,"secDetail":20,"orderDetail":"1","node":1907,"distance":2993,"distancePreviousStop":165,"name":"ORENSE-GRAL.PERON","latitude":40.452028857738,"longitude":-3.695216054529},{"line":5,"secDetail":20,"orderDetail":"1","node":1905,"distance":3246,"distancePreviousStop":253,"name":"ORENSE-BASILICA","latitude":40.449757340535,"longitude":-3.6954284968051},{"line":5,"secDetail":20,"orderDetail":"1","node":1903,"distance":3532,"distancePreviousStop":286,"name":"ORENSE-RAIMUNDO FDEZ.VILLAVERDE","latitude":40.447188540104,"longitude":-3.6956390398567},{"line":5,"secDetail":20,"orderDetail":"1","node":1901,"distance":3861,"distancePreviousStop":329,"name":"MODESTO LAFUENTE-MARIA DE GUZMAN","latitude":40.444231897144,"longitude":-3.695925751547},{"line":5,"secDetail":20,"orderDetail":"1","node":1899,"distance":4171,"distancePreviousStop":310,"name":"MODESTO LAFUENTE-RIOS ROSAS","latitude":40.441446900596,"longitude":-3.6961328520415},{"line":5,"secDetail":20,"orderDetail":"1","node":1897,"distance":4486,"distancePreviousStop":315,"name":"MODESTO LAFUENTE-JOSE ABASCAL","latitude":40.438616505652,"longitude":-3.696398421865},{"line":5,"secDetail":20,"orderDetail":"1","node":527,"distance":4924,"distancePreviousStop":438,"name":"GRAL.MTNEZ.CAMPOS-FDEZ.DE LA HOZ","latitude":40.434924858168,"longitude":-3.6960655819726},{"line":5,"secDetail":20,"orderDetail":"1","node":1894,"distance":5216,"distancePreviousStop":292,"name":"GRAL.MARTINEZ CAMPOS-ZURBANO","latitude":40.435026609967,"longitude":-3.692623947634},{"line":5,"secDetail":20,"orderDetail":"1","node":57,"distance":5530,"distancePreviousStop":314,"name":"GTA.EMILIO CASTELAR","latitude":40.434920525794,"longitude":-3.689270963356},{"line":5,"secDetail":20,"orderDetail":"1","node":59,"distance":5794,"distancePreviousStop":264,"name":"P\u00ba CASTELLANA-P\u00ba EDUARDO DATO","latitude":40.432923247392,"longitude":-3.6888178883276},{"line":5,"secDetail":20,"orderDetail":"1","node":61,"distance":6235,"distancePreviousStop":441,"name":"P\u00ba CASTELLANA-MINISTERIO INTERIOR","latitude":40.429079559378,"longitude":-3.6898054891506},{"line":5,"secDetail":20,"orderDetail":"1","node":63,"distance":6617,"distancePreviousStop":382,"name":"P\u00ba CASTELLANA-PZA.DE COLON","latitude":40.425813390387,"longitude":-3.6906326727298},{"line":5,"secDetail":20,"orderDetail":"1","node":64,"distance":6739,"distancePreviousStop":122,"name":"PZA.DE COLON-P\u00ba RECOLETOS","latitude":40.424785456574,"longitude":-3.6907860148384},{"line":5,"secDetail":20,"orderDetail":"1","node":68,"distance":6972,"distancePreviousStop":233,"name":"P\u00ba RECOLETOS-BARBARA DE BRAGANZA","latitude":40.422799068204,"longitude":-3.6915260119331},{"line":5,"secDetail":20,"orderDetail":"1","node":73,"distance":7301,"distancePreviousStop":329,"name":"P\u00ba RECOLETOS-PZA.DE CIBELES","latitude":40.420142736182,"longitude":-3.6928131071937},{"line":5,"secDetail":20,"orderDetail":"1","node":713,"distance":7784,"distancePreviousStop":483,"name":"ALCALA-GRAN VIA","latitude":40.418443298768,"longitude":-3.6982625379126},{"line":5,"secDetail":20,"orderDetail":"1","node":95,"distance":8234,"distancePreviousStop":450,"name":"PUERTA DEL SOL","latitude":40.416894385199,"longitude":-3.7026206219596},{"line":7,"secDetail":10,"orderDetail":"1","node":491,"distance":0,"distancePreviousStop":0,"name":"ALMAGRO-PZA.ALONSO MARTINEZ","latitude":40.428002751259,"longitude":-3.6951100507703},{"line":7,"secDetail":10,"orderDetail":"1","node":492,"distance":312,"distancePreviousStop":312,"name":"ALMAGRO-ZURBANO","latitude":40.430323517952,"longitude":-3.6926971206939},{"line":7,"secDetail":10,"orderDetail":"1","node":494,"distance":556,"distancePreviousStop":244,"name":"ALMAGRO-P\u00ba EDUARDO DATO","latitude":40.432186531491,"longitude":-3.6914983808083},{"line":7,"secDetail":10,"orderDetail":"1","node":529,"distance":946,"distancePreviousStop":390,"name":"GRAL.MTNEZ.CAMPOS-FORTUNY","latitude":40.435048031453,"longitude":-3.6905491243913},{"line":7,"secDetail":10,"orderDetail":"1","node":58,"distance":1187,"distancePreviousStop":241,"name":"GTA.EMILIO CASTELAR","latitude":40.435698737209,"longitude":-3.6886929409592},{"line":7,"secDetail":10,"orderDetail":"1","node":56,"distance":1546,"distancePreviousStop":359,"name":"PZA.DOCTOR MARA\u00d1ON","latitude":40.438301091235,"longitude":-3.6904079081039},{"line":7,"secDetail":10,"orderDetail":"1","node":54,"distance":1868,"distancePreviousStop":322,"name":"PZA.SAN JUAN DE LA CRUZ","latitude":40.441070041002,"longitude":-3.6913771637189},{"line":7,"secDetail":10,"orderDetail":"1","node":52,"distance":2162,"distancePreviousStop":294,"name":"P\u00ba CASTELLANA-JORGE MANRIQUE","latitude":40.443683942737,"longitude":-3.691156323728},{"line":7,"secDetail":10,"orderDetail":"1","node":421,"distance":2525,"distancePreviousStop":363,"name":"JOAQUIN COSTA-N.MINISTERIOS","latitude":40.445969324038,"longitude":-3.6901302528338},{"line":7,"secDetail":10,"orderDetail":"1","node":420,"distance":2886,"distancePreviousStop":361,"name":"JOAQUIN COSTA-PZA.REP.ARGENTINA","latitude":40.445542001677,"longitude":-3.6862463624833},{"line":7,"secDetail":10,"orderDetail":"1","node":5318,"distance":3269,"distancePreviousStop":383,"name":"AV.DOCTOR ARCE-VELAZQUEZ","latitude":40.445796259342,"longitude":-3.6828646736966},{"line":7,"secDetail":10,"orderDetail":"1","node":416,"distance":3532,"distancePreviousStop":263,"name":"AV.DR.ARCE-PZA.SANTA GEMA","latitude":40.447359951664,"longitude":-3.6804631048232},{"line":7,"secDetail":10,"orderDetail":"1","node":433,"distance":3807,"distancePreviousStop":275,"name":"CINCA-PZA.DE CATALU\u00d1A","latitude":40.44927562,"longitude":-3.6794800636632},{"line":7,"secDetail":10,"orderDetail":"1","node":434,"distance":4030,"distancePreviousStop":223,"name":"CINCA-SERRANO","latitude":40.450171646433,"longitude":-3.6818358288921},{"line":7,"secDetail":10,"orderDetail":"1","node":435,"distance":4298,"distancePreviousStop":268,"name":"SERRANO-HOSPITAL SAN RAFAEL","latitude":40.452050319585,"longitude":-3.6810175154078},{"line":7,"secDetail":10,"orderDetail":"1","node":437,"distance":4697,"distancePreviousStop":399,"name":"SERRANO-PRINCIPE DE VERGARA","latitude":40.454573495572,"longitude":-3.6778351760485},{"line":7,"secDetail":10,"orderDetail":"1","node":4849,"distance":4850,"distancePreviousStop":153,"name":"PRINCIPE DE VERGARA-REP.ECUADOR","latitude":40.455813099718,"longitude":-3.6769159352362},{"line":7,"secDetail":10,"orderDetail":"1","node":439,"distance":5097,"distancePreviousStop":247,"name":"PRINCIPE DE VERGARA-COLOMBIA","latitude":40.45803074276,"longitude":-3.6766669304013},{"line":7,"secDetail":10,"orderDetail":"1","node":299,"distance":5258,"distancePreviousStop":161,"name":"COSTA RICA-CHILE","latitude":40.45831710645,"longitude":-3.6754550122471},{"line":7,"secDetail":10,"orderDetail":"1","node":300,"distance":5526,"distancePreviousStop":268,"name":"COSTA RICA-VICTOR DE LA SERNA","latitude":40.458272474389,"longitude":-3.6722937507304},{"line":7,"secDetail":10,"orderDetail":"1","node":302,"distance":5801,"distancePreviousStop":275,"name":"COSTA RICA-PZA.JOSE MARIA SOLER","latitude":40.458723625514,"longitude":-3.669066647158},{"line":7,"secDetail":10,"orderDetail":"1","node":217,"distance":6433,"distancePreviousStop":632,"name":"ARTURO SORIA N\u00ba 212","latitude":40.461015110918,"longitude":-3.6622485332949},{"line":7,"secDetail":10,"orderDetail":"1","node":216,"distance":6875,"distancePreviousStop":442,"name":"ARTURO SORIA-MANUEL URIBE","latitude":40.464062042512,"longitude":-3.6650503069136},{"line":7,"secDetail":10,"orderDetail":"1","node":214,"distance":7264,"distancePreviousStop":389,"name":"ARTURO SORIA-A\u00d1ASTRO","latitude":40.467498074701,"longitude":-3.6659806734348},{"line":7,"secDetail":10,"orderDetail":"1","node":497,"distance":7681,"distancePreviousStop":417,"name":"ARTURO SORIA-JULIO DANVILA","latitude":40.471131939972,"longitude":-3.6669720760805},{"line":7,"secDetail":10,"orderDetail":"1","node":499,"distance":7913,"distancePreviousStop":232,"name":"ARTURO SORIA-ELADIO LOPEZ VILCHES","latitude":40.473200727219,"longitude":-3.6675351942574},{"line":7,"secDetail":10,"orderDetail":"1","node":501,"distance":8312,"distancePreviousStop":399,"name":"AV.SAN LUIS-ARTURO SORIA","latitude":40.47540675594,"longitude":-3.6677328189375},{"line":7,"secDetail":10,"orderDetail":"1","node":503,"distance":8487,"distancePreviousStop":175,"name":"AV.SAN LUIS-MESENA","latitude":40.474696970516,"longitude":-3.6658394532424},{"line":7,"secDetail":10,"orderDetail":"1","node":505,"distance":8784,"distancePreviousStop":297,"name":"CUEVAS DE ALMANZORA-AV.SAN LUIS","latitude":40.473839774042,"longitude":-3.6629407666959},{"line":7,"secDetail":10,"orderDetail":"1","node":507,"distance":9042,"distancePreviousStop":258,"name":"CUEVAS DE ALMANZORA-BACARES","latitude":40.475500664819,"longitude":-3.6607982329241},{"line":7,"secDetail":10,"orderDetail":"1","node":508,"distance":9270,"distancePreviousStop":228,"name":"CUEVAS DE ALMANZORA N\u00ba 18","latitude":40.476899265384,"longitude":-3.6588299908714},{"line":7,"secDetail":10,"orderDetail":"1","node":509,"distance":9630,"distancePreviousStop":360,"name":"ALICUN-SOMONTIN","latitude":40.479103284403,"longitude":-3.6593824352983},{"line":7,"secDetail":10,"orderDetail":"1","node":510,"distance":9855,"distancePreviousStop":225,"name":"VELEZ RUBIO N\u00ba 113","latitude":40.47812921435,"longitude":-3.6611543370209},{"line":7,"secDetail":10,"orderDetail":"1","node":511,"distance":10102,"distancePreviousStop":247,"name":"BACARES-VELEZ RUBIO","latitude":40.476302300305,"longitude":-3.6623987202876},{"line":7,"secDetail":20,"orderDetail":"1","node":511,"distance":0,"distancePreviousStop":0,"name":"BACARES-VELEZ RUBIO","latitude":40.476302300305,"longitude":-3.6623987202876},{"line":7,"secDetail":20,"orderDetail":"1","node":512,"distance":163,"distancePreviousStop":163,"name":"BACARES-CUEVAS DE ALMANZORA","latitude":40.475416823396,"longitude":-3.6612810915724},{"line":7,"secDetail":20,"orderDetail":"1","node":506,"distance":420,"distancePreviousStop":257,"name":"CUEVAS DE ALMANZORA-AV.SAN LUIS","latitude":40.473946520798,"longitude":-3.6631777532003},{"line":7,"secDetail":20,"orderDetail":"1","node":504,"distance":719,"distancePreviousStop":299,"name":"AV.SAN LUIS-GOLFO DE SALONICA","latitude":40.474930779723,"longitude":-3.6659125449837},{"line":7,"secDetail":20,"orderDetail":"1","node":502,"distance":918,"distancePreviousStop":199,"name":"AV.SAN LUIS-ARTURO SORIA","latitude":40.475747975466,"longitude":-3.6679261334424},{"line":7,"secDetail":20,"orderDetail":"1","node":513,"distance":1071,"distancePreviousStop":153,"name":"ARTURO SORIA-CUARTEL INFANTERIA MARINA","latitude":40.475015094507,"longitude":-3.6684733304842},{"line":7,"secDetail":20,"orderDetail":"1","node":500,"distance":1282,"distancePreviousStop":211,"name":"ARTURO SORIA-ELADIO LOPEZ VILCHES","latitude":40.473135010857,"longitude":-3.6679946142347},{"line":7,"secDetail":20,"orderDetail":"1","node":498,"distance":1530,"distancePreviousStop":248,"name":"ARTURO SORIA-SERRANO GALVACHE","latitude":40.470958193866,"longitude":-3.6674186166377},{"line":7,"secDetail":20,"orderDetail":"1","node":212,"distance":2041,"distancePreviousStop":511,"name":"ARTURO SORIA-A\u00d1ASTRO","latitude":40.466470102419,"longitude":-3.6661474519837},{"line":7,"secDetail":20,"orderDetail":"1","node":215,"distance":2437,"distancePreviousStop":396,"name":"ARTURO SORIA-MANUEL URIBE","latitude":40.46295381009,"longitude":-3.6650747612076},{"line":7,"secDetail":20,"orderDetail":"1","node":303,"distance":3257,"distancePreviousStop":820,"name":"COSTA RICA-PZA.JOSE MARIA SOLER","latitude":40.45898350252,"longitude":-3.6693051095923},{"line":7,"secDetail":20,"orderDetail":"1","node":301,"distance":3455,"distancePreviousStop":198,"name":"COSTA RICA-VICTOR DE LA SERNA","latitude":40.458628619641,"longitude":-3.6714681724948},{"line":7,"secDetail":20,"orderDetail":"1","node":314,"distance":3839,"distancePreviousStop":384,"name":"COSTA RICA-PZA.REP.DOMINICANA","latitude":40.458755413236,"longitude":-3.6759901397018},{"line":7,"secDetail":20,"orderDetail":"1","node":440,"distance":4115,"distancePreviousStop":276,"name":"PRINCIPE DE VERGARA-COLOMBIA","latitude":40.457478056238,"longitude":-3.6772039065904},{"line":7,"secDetail":20,"orderDetail":"1","node":4850,"distance":4304,"distancePreviousStop":189,"name":"PRINCIPE DE VERGARA-REP.ECUADOR","latitude":40.455774371963,"longitude":-3.6773754987411},{"line":7,"secDetail":20,"orderDetail":"1","node":514,"distance":4498,"distancePreviousStop":194,"name":"PRINCIPE DE VERGARA-SERRANO","latitude":40.454089187556,"longitude":-3.6774647151974},{"line":7,"secDetail":20,"orderDetail":"1","node":516,"distance":4718,"distancePreviousStop":220,"name":"PRINCIPE DE VERGARA-CONCHA ESPINA","latitude":40.452340384186,"longitude":-3.677648812429},{"line":7,"secDetail":20,"orderDetail":"1","node":456,"distance":5050,"distancePreviousStop":332,"name":"AV.CONCHA ESPINA-SERRANO","latitude":40.451825597053,"longitude":-3.6809326960043},{"line":7,"secDetail":20,"orderDetail":"1","node":441,"distance":5313,"distancePreviousStop":263,"name":"SERRANO-SEGRE","latitude":40.449923549028,"longitude":-3.6826588047934},{"line":7,"secDetail":20,"orderDetail":"1","node":442,"distance":5569,"distancePreviousStop":256,"name":"SERRANO-GUADIANA","latitude":40.447834882233,"longitude":-3.6839466103733},{"line":7,"secDetail":20,"orderDetail":"1","node":419,"distance":5963,"distancePreviousStop":394,"name":"JOAQUIN COSTA-PZA.REP.ARGENTINA","latitude":40.445849937346,"longitude":-3.6859712054852},{"line":7,"secDetail":20,"orderDetail":"1","node":422,"distance":6285,"distancePreviousStop":322,"name":"JOAQUIN COSTA-N.MINISTERIOS","latitude":40.446375121916,"longitude":-3.6900636516505},{"line":7,"secDetail":20,"orderDetail":"1","node":49,"distance":6526,"distancePreviousStop":241,"name":"P\u00ba CASTELLANA-NUEVOS MINISTERIOS","latitude":40.445311279473,"longitude":-3.691703624733},{"line":7,"secDetail":20,"orderDetail":"1","node":51,"distance":6673,"distancePreviousStop":147,"name":"P\u00ba CASTELLANA-NUEVOS MINISTERIOS","latitude":40.443995214501,"longitude":-3.6918316322215},{"line":7,"secDetail":20,"orderDetail":"1","node":53,"distance":7014,"distancePreviousStop":341,"name":"PZA.SAN JUAN DE LA CRUZ","latitude":40.440929976673,"longitude":-3.6922011018695},{"line":7,"secDetail":20,"orderDetail":"1","node":4742,"distance":7354,"distancePreviousStop":340,"name":"CASTELLANA-PZA.DR.MARA\u00d1ON","latitude":40.438249918929,"longitude":-3.6914331648185},{"line":7,"secDetail":20,"orderDetail":"1","node":4338,"distance":7682,"distancePreviousStop":328,"name":"MIGUEL ANGEL-GRAL.MARTINEZ CAMPOS","latitude":40.435492952739,"longitude":-3.6914733038163},{"line":7,"secDetail":20,"orderDetail":"1","node":495,"distance":8031,"distancePreviousStop":349,"name":"ALMAGRO-P\u00ba EDUARDO DATO","latitude":40.432437072932,"longitude":-3.6917838968181},{"line":7,"secDetail":20,"orderDetail":"1","node":493,"distance":8327,"distancePreviousStop":296,"name":"ALMAGRO-ZURBANO","latitude":40.430121539086,"longitude":-3.6933281258944},{"line":7,"secDetail":20,"orderDetail":"1","node":518,"distance":8573,"distancePreviousStop":246,"name":"ALMAGRO N\u00ba 3","latitude":40.428417065093,"longitude":-3.6951261054008},{"line":7,"secDetail":20,"orderDetail":"1","node":491,"distance":8823,"distancePreviousStop":250,"name":"ALMAGRO-PZA.ALONSO MARTINEZ","latitude":40.428002751259,"longitude":-3.6951100507703},{"line":9,"secDetail":10,"orderDetail":"1","node":2002,"distance":0,"distancePreviousStop":0,"name":"ALCALA-CEDACEROS","latitude":40.418212766866,"longitude":-3.6976495839538},{"line":9,"secDetail":10,"orderDetail":"1","node":75,"distance":492,"distancePreviousStop":492,"name":"PZA.DE CIBELES","latitude":40.419126625097,"longitude":-3.6924962150226},{"line":9,"secDetail":10,"orderDetail":"1","node":162,"distance":892,"distancePreviousStop":400,"name":"PUERTA DE ALCALA","latitude":40.419602319265,"longitude":-3.68826826599},{"line":9,"secDetail":10,"orderDetail":"1","node":423,"distance":1401,"distancePreviousStop":509,"name":"VELAZQUEZ-VILLANUEVA","latitude":40.422112835908,"longitude":-3.6842164671703},{"line":9,"secDetail":10,"orderDetail":"1","node":424,"distance":1703,"distancePreviousStop":302,"name":"VELAZQUEZ-GOYA","latitude":40.424834625695,"longitude":-3.6840318590608},{"line":9,"secDetail":10,"orderDetail":"1","node":425,"distance":2006,"distancePreviousStop":303,"name":"VELAZQUEZ-AYALA","latitude":40.427556692943,"longitude":-3.6838000855773},{"line":9,"secDetail":10,"orderDetail":"1","node":426,"distance":2281,"distancePreviousStop":275,"name":"VELAZQUEZ-J.ORTEGA Y GASSET","latitude":40.43002680271,"longitude":-3.6835185871379},{"line":9,"secDetail":10,"orderDetail":"1","node":427,"distance":2506,"distancePreviousStop":225,"name":"VELAZQUEZ-JUAN BRAVO","latitude":40.432054455085,"longitude":-3.6834094334988},{"line":9,"secDetail":10,"orderDetail":"1","node":428,"distance":2793,"distancePreviousStop":287,"name":"VELAZQUEZ-DIEGO DE LEON","latitude":40.434632175082,"longitude":-3.6832115230577},{"line":9,"secDetail":10,"orderDetail":"1","node":5377,"distance":3158,"distancePreviousStop":365,"name":"VELAZQUEZ-MARIA DE MOLINA","latitude":40.43791324325,"longitude":-3.6829028116828},{"line":9,"secDetail":10,"orderDetail":"1","node":2007,"distance":3492,"distancePreviousStop":334,"name":"LOPEZ DE HOYOS-FCO.SILVELA","latitude":40.440086867239,"longitude":-3.680955726377},{"line":9,"secDetail":10,"orderDetail":"1","node":2009,"distance":3779,"distancePreviousStop":287,"name":"LOPEZ DE HOYOS-PRINCIPE VERGARA","latitude":40.441526693076,"longitude":-3.6781627817184},{"line":9,"secDetail":10,"orderDetail":"1","node":2011,"distance":4039,"distancePreviousStop":260,"name":"LOPEZ DE HOYOS-GRAL.ZABALA","latitude":40.442919598023,"longitude":-3.6756793622073},{"line":9,"secDetail":10,"orderDetail":"1","node":2013,"distance":4230,"distancePreviousStop":191,"name":"LOPEZ DE HOYOS-PZA.PROSPERIDAD","latitude":40.444154030539,"longitude":-3.674099855353},{"line":9,"secDetail":10,"orderDetail":"1","node":2015,"distance":4469,"distancePreviousStop":239,"name":"LOPEZ DE HOYOS-CARDENAL SILICEO","latitude":40.445508992781,"longitude":-3.671929541281},{"line":9,"secDetail":10,"orderDetail":"1","node":2017,"distance":4720,"distancePreviousStop":251,"name":"LOPEZ DE HOYOS-PANTOJA","latitude":40.446999259001,"longitude":-3.6697227486519},{"line":9,"secDetail":10,"orderDetail":"1","node":2020,"distance":4957,"distancePreviousStop":237,"name":"LOPEZ DE HOYOS-CLARA DEL REY","latitude":40.44840748186,"longitude":-3.6676754231703},{"line":9,"secDetail":10,"orderDetail":"1","node":4721,"distance":5247,"distancePreviousStop":290,"name":"LOPEZ DE HOYOS-PADRE CLARET","latitude":40.450160709358,"longitude":-3.6651585305761},{"line":9,"secDetail":10,"orderDetail":"1","node":2022,"distance":5482,"distancePreviousStop":235,"name":"PADRE CLARET-AV.RAMON Y CAJAL","latitude":40.452204506143,"longitude":-3.6653709096789},{"line":9,"secDetail":10,"orderDetail":"1","node":408,"distance":5903,"distancePreviousStop":421,"name":"AV.RAMON Y CAJAL-AV.LA PAZ","latitude":40.45349864955,"longitude":-3.6612076843257},{"line":9,"secDetail":10,"orderDetail":"1","node":2024,"distance":6304,"distancePreviousStop":401,"name":"LOPEZ DE HOYOS-CA\u00d1AS","latitude":40.45677995416,"longitude":-3.6608459382586},{"line":9,"secDetail":10,"orderDetail":"1","node":2026,"distance":6647,"distancePreviousStop":343,"name":"LOPEZ DE HOYOS-ARTURO SORIA","latitude":40.459705998768,"longitude":-3.659591386503},{"line":9,"secDetail":10,"orderDetail":"1","node":2027,"distance":6903,"distancePreviousStop":256,"name":"LOPEZ DE HOYOS-NAVARRO AMANDI","latitude":40.461864314626,"longitude":-3.6586807148441},{"line":9,"secDetail":10,"orderDetail":"1","node":2029,"distance":7133,"distancePreviousStop":230,"name":"LOPEZ DE HOYOS-CTRA.CANILLAS","latitude":40.463619782231,"longitude":-3.6573202039946},{"line":9,"secDetail":10,"orderDetail":"1","node":2031,"distance":7407,"distancePreviousStop":274,"name":"LOPEZ DE HOYOS-PINAR DEL REY","latitude":40.465514320109,"longitude":-3.6552626906703},{"line":9,"secDetail":10,"orderDetail":"1","node":2033,"distance":7783,"distancePreviousStop":376,"name":"LOPEZ DE HOYOS-GRAN VIA DE HORTALEZA","latitude":40.467859307281,"longitude":-3.6531976308223},{"line":9,"secDetail":10,"orderDetail":"1","node":2035,"distance":8067,"distancePreviousStop":284,"name":"LOPEZ DE HOYOS-ANGEL LUIS HERRAN","latitude":40.47017703323,"longitude":-3.651167553474},{"line":9,"secDetail":10,"orderDetail":"1","node":2037,"distance":8313,"distancePreviousStop":246,"name":"LOPEZ DE HOYOS-VALDETORRES DEL JARAMA","latitude":40.472014893797,"longitude":-3.6495573902891},{"line":9,"secDetail":10,"orderDetail":"1","node":1846,"distance":8492,"distancePreviousStop":179,"name":"MAR CASPIO-PZA.SANTOS HUMOSA","latitude":40.473446977988,"longitude":-3.6480104807129},{"line":9,"secDetail":10,"orderDetail":"1","node":1848,"distance":8807,"distancePreviousStop":315,"name":"MAR DE LAS ANTILLAS-MAR NEGRO","latitude":40.474129285152,"longitude":-3.6452129245981},{"line":9,"secDetail":10,"orderDetail":"1","node":2039,"distance":9097,"distancePreviousStop":290,"name":"MAR DE LAS ANTILLAS-SANTA SUSANA","latitude":40.47599022981,"longitude":-3.6475193948879},{"line":9,"secDetail":10,"orderDetail":"1","node":3550,"distance":9209,"distancePreviousStop":112,"name":"MAR DE LAS ANTILLAS-ABARZUZA","latitude":40.476706402869,"longitude":-3.6483284931872},{"line":9,"secDetail":10,"orderDetail":"1","node":2043,"distance":9367,"distancePreviousStop":158,"name":"MAR DE LAS ANTILLAS-ABIZANDA","latitude":40.477908491981,"longitude":-3.649236669281},{"line":9,"secDetail":20,"orderDetail":"1","node":2043,"distance":0,"distancePreviousStop":0,"name":"MAR DE LAS ANTILLAS-ABIZANDA","latitude":40.477908491981,"longitude":-3.649236669281},{"line":9,"secDetail":20,"orderDetail":"1","node":2042,"distance":241,"distancePreviousStop":241,"name":"SANTA ADELA-SANTA SUSANA","latitude":40.479041754547,"longitude":-3.647961634401},{"line":9,"secDetail":20,"orderDetail":"1","node":2041,"distance":462,"distancePreviousStop":221,"name":"STA.SUSANA N\u00ba 33","latitude":40.477886810296,"longitude":-3.646676397263},{"line":9,"secDetail":20,"orderDetail":"1","node":2040,"distance":676,"distancePreviousStop":214,"name":"SANTA SUSANA-MAR DE LAS ANTILLAS","latitude":40.476390363608,"longitude":-3.6468507950455},{"line":9,"secDetail":20,"orderDetail":"1","node":1849,"distance":974,"distancePreviousStop":298,"name":"MAR DE LAS ANTILLAS-MAR NEGRO","latitude":40.474362317577,"longitude":-3.6454274996709},{"line":9,"secDetail":20,"orderDetail":"1","node":1847,"distance":1283,"distancePreviousStop":309,"name":"MAR CASPIO-FELIPE HERRANZ","latitude":40.473636425113,"longitude":-3.6479639351983},{"line":9,"secDetail":20,"orderDetail":"1","node":2038,"distance":1488,"distancePreviousStop":205,"name":"LOPEZ DE HOYOS-VALDETORRES DEL JARAMA","latitude":40.472149495731,"longitude":-3.6496518798529},{"line":9,"secDetail":20,"orderDetail":"1","node":2036,"distance":1762,"distancePreviousStop":274,"name":"LOPEZ DE HOYOS-ANGEL LUIS HERRAN        ","latitude":40.470139457642,"longitude":-3.6514408616312},{"line":9,"secDetail":20,"orderDetail":"1","node":2034,"distance":2088,"distancePreviousStop":326,"name":"LOPEZ DE HOYOS-GRAN VIA DE HORTALEZA","latitude":40.467540879745,"longitude":-3.6537489442127},{"line":9,"secDetail":20,"orderDetail":"1","node":2032,"distance":2356,"distancePreviousStop":268,"name":"LOPEZ DE HOYOS-PINAR DEL REY","latitude":40.465992165367,"longitude":-3.6551965620352},{"line":9,"secDetail":20,"orderDetail":"1","node":2030,"distance":2695,"distancePreviousStop":339,"name":"LOPEZ DE HOYOS-CTRA.CANILLAS","latitude":40.46356363197,"longitude":-3.6576888406141},{"line":9,"secDetail":20,"orderDetail":"1","node":2028,"distance":2951,"distancePreviousStop":256,"name":"LOPEZ DE HOYOS-NAVARRO AMANDI","latitude":40.461689981791,"longitude":-3.6592357212214},{"line":9,"secDetail":20,"orderDetail":"1","node":218,"distance":3256,"distancePreviousStop":305,"name":"ARTURO SORIA-LOPEZ DE HOYOS","latitude":40.459465489852,"longitude":-3.6606906215892},{"line":9,"secDetail":20,"orderDetail":"1","node":2025,"distance":3624,"distancePreviousStop":368,"name":"LOPEZ DE HOYOS-PEDRO SALINAS","latitude":40.456670140615,"longitude":-3.6611444250141},{"line":9,"secDetail":20,"orderDetail":"1","node":409,"distance":4031,"distancePreviousStop":407,"name":"AV.RAMON Y CAJAL-AV.LA PAZ","latitude":40.453640422018,"longitude":-3.6616218388165},{"line":9,"secDetail":20,"orderDetail":"1","node":462,"distance":4422,"distancePreviousStop":391,"name":"AV.RAMON Y CAJAL-PADRE CLARET","latitude":40.452525337624,"longitude":-3.6659767008233},{"line":9,"secDetail":20,"orderDetail":"1","node":310,"distance":4679,"distancePreviousStop":257,"name":"AV.ALFONSO XIII-PRADILLO","latitude":40.451218335143,"longitude":-3.6676619681836},{"line":9,"secDetail":20,"orderDetail":"1","node":2021,"distance":5017,"distancePreviousStop":338,"name":"LOPEZ DE HOYOS-CLARA DEL REY","latitude":40.44872485206,"longitude":-3.6673188953798},{"line":9,"secDetail":20,"orderDetail":"1","node":2018,"distance":5257,"distancePreviousStop":240,"name":"LOPEZ DE HOYOS-PANTOJA","latitude":40.447333989845,"longitude":-3.6694807941881},{"line":9,"secDetail":20,"orderDetail":"1","node":2016,"distance":5502,"distancePreviousStop":245,"name":"LOPEZ DE HOYOS-CARDENAL SILICEO","latitude":40.445853017481,"longitude":-3.6716393487045},{"line":9,"secDetail":20,"orderDetail":"1","node":2014,"distance":5721,"distancePreviousStop":219,"name":"LOPEZ DE HOYOS-EUGENIO SALAZAR","latitude":40.444616138515,"longitude":-3.6736445958843},{"line":9,"secDetail":20,"orderDetail":"1","node":2012,"distance":5918,"distancePreviousStop":197,"name":"LOPEZ DE HOYOS-GRAL.ZABALA","latitude":40.44338122314,"longitude":-3.6753078364683},{"line":9,"secDetail":20,"orderDetail":"1","node":2010,"distance":6222,"distancePreviousStop":304,"name":"LOPEZ DE HOYOS-PRINCIPE DE VERGARA","latitude":40.44179766361,"longitude":-3.6780428763975},{"line":9,"secDetail":20,"orderDetail":"1","node":2008,"distance":6572,"distancePreviousStop":350,"name":"LOPEZ DE HOYOS-FCO.SILVELA","latitude":40.440201683483,"longitude":-3.6813459853635},{"line":9,"secDetail":20,"orderDetail":"1","node":2006,"distance":6799,"distancePreviousStop":227,"name":"PEDRO DE VALDIVIA-VELAZQUEZ","latitude":40.439333221105,"longitude":-3.6834831373349},{"line":9,"secDetail":20,"orderDetail":"1","node":446,"distance":7152,"distancePreviousStop":353,"name":"SERRANO-MARIA DE MOLINA","latitude":40.438279654521,"longitude":-3.6864436947154},{"line":9,"secDetail":20,"orderDetail":"1","node":447,"distance":7431,"distancePreviousStop":279,"name":"SERRANO-GRAL.ORAA","latitude":40.435782796757,"longitude":-3.6866776834809},{"line":9,"secDetail":20,"orderDetail":"1","node":448,"distance":7647,"distancePreviousStop":216,"name":"SERRANO-MALDONADO","latitude":40.433845016938,"longitude":-3.6868230272195},{"line":9,"secDetail":20,"orderDetail":"1","node":4710,"distance":7799,"distancePreviousStop":152,"name":"SERRANO-PADILLA","latitude":40.432466105721,"longitude":-3.6869151030723},{"line":9,"secDetail":20,"orderDetail":"1","node":449,"distance":8124,"distancePreviousStop":325,"name":"SERRANO-MQUES.VILLAMAGNA","latitude":40.429572175526,"longitude":-3.6872629062896},{"line":9,"secDetail":20,"orderDetail":"1","node":450,"distance":8253,"distancePreviousStop":129,"name":"SERRANO-AYALA","latitude":40.428417631368,"longitude":-3.6874987192077},{"line":9,"secDetail":20,"orderDetail":"1","node":451,"distance":8518,"distancePreviousStop":265,"name":"SERRANO-GOYA","latitude":40.426054771421,"longitude":-3.6879226199872},{"line":9,"secDetail":20,"orderDetail":"1","node":452,"distance":8860,"distancePreviousStop":342,"name":"SERRANO-MUSEO ARQUEOLOGICO","latitude":40.422997631975,"longitude":-3.688445506034},{"line":9,"secDetail":20,"orderDetail":"1","node":161,"distance":9178,"distancePreviousStop":318,"name":"PUERTA DE ALCALA","latitude":40.420587758023,"longitude":-3.6891989125635},{"line":9,"secDetail":20,"orderDetail":"1","node":69,"distance":9593,"distancePreviousStop":415,"name":"PZA.DE CIBELES","latitude":40.419696944052,"longitude":-3.6935393486955},{"line":9,"secDetail":20,"orderDetail":"1","node":76,"distance":9815,"distancePreviousStop":222,"name":"P\u00ba PRADO-BANCO DE ESPA\u00d1A","latitude":40.417728731162,"longitude":-3.6942499304637},{"line":9,"secDetail":20,"orderDetail":"1","node":2003,"distance":10178,"distancePreviousStop":363,"name":"PLAZA DE LAS CORTES","latitude":40.415837194292,"longitude":-3.695692033563},{"line":9,"secDetail":20,"orderDetail":"1","node":2004,"distance":10498,"distancePreviousStop":320,"name":"CEDACEROS-ZORRILLA","latitude":40.417046402879,"longitude":-3.6983471055214},{"line":9,"secDetail":20,"orderDetail":"1","node":2002,"distance":10689,"distancePreviousStop":191,"name":"ALCALA-CEDACEROS","latitude":40.418212766866,"longitude":-3.6976495839538},{"line":12,"secDetail":10,"orderDetail":"1","node":4541,"distance":0,"distancePreviousStop":0,"name":"CEA BERMUDEZ-GAZTAMBIDE","latitude":40.439362110167,"longitude":-3.7159198322604},{"line":12,"secDetail":10,"orderDetail":"1","node":803,"distance":206,"distancePreviousStop":206,"name":"SAN FCO.DE SALES-PZA.CRISTO REY","latitude":40.439672359765,"longitude":-3.7167366897994},{"line":12,"secDetail":10,"orderDetail":"1","node":2390,"distance":462,"distancePreviousStop":256,"name":"SAN FCO.DE SALES-ANDRES MELLADO","latitude":40.441155164165,"longitude":-3.7144178059368},{"line":12,"secDetail":10,"orderDetail":"1","node":188,"distance":804,"distancePreviousStop":342,"name":"GUZMAN EL BUENO-JUAN VIGON","latitude":40.441543339136,"longitude":-3.712830111171},{"line":12,"secDetail":10,"orderDetail":"1","node":805,"distance":1148,"distancePreviousStop":344,"name":"CEA BERMUDEZ-GUZMAN EL BUENO","latitude":40.438842517763,"longitude":-3.7125303976575},{"line":12,"secDetail":10,"orderDetail":"1","node":806,"distance":1432,"distancePreviousStop":284,"name":"CEA BERMUDEZ-VALLEHERMOSO","latitude":40.438676246892,"longitude":-3.7088027988129},{"line":12,"secDetail":10,"orderDetail":"1","node":807,"distance":1864,"distancePreviousStop":432,"name":"JOSE ABASCAL-BRAVO MURILLO","latitude":40.438509108995,"longitude":-3.7037192878573},{"line":12,"secDetail":10,"orderDetail":"1","node":808,"distance":2124,"distancePreviousStop":260,"name":"JOSE ABASCAL-SANTA ENGRACIA","latitude":40.43837451575,"longitude":-3.7006641204941},{"line":12,"secDetail":10,"orderDetail":"1","node":4642,"distance":2337,"distancePreviousStop":213,"name":"JOSE ABASCAL-ALONSO CANO","latitude":40.438254584261,"longitude":-3.6981514830091},{"line":12,"secDetail":10,"orderDetail":"1","node":809,"distance":2529,"distancePreviousStop":192,"name":"JOSE ABASCAL-MODESTO LAFUENTE","latitude":40.438169141316,"longitude":-3.6958868115119},{"line":12,"secDetail":10,"orderDetail":"1","node":810,"distance":2863,"distancePreviousStop":334,"name":"JOSE ABASCAL-P\u00ba CASTELLANA","latitude":40.437967944115,"longitude":-3.6918842112757},{"line":12,"secDetail":10,"orderDetail":"1","node":532,"distance":3258,"distancePreviousStop":395,"name":"MARIA DE MOLINA-SERRANO","latitude":40.437706873581,"longitude":-3.6873221552053},{"line":12,"secDetail":10,"orderDetail":"1","node":793,"distance":3670,"distancePreviousStop":412,"name":"MARIA DE MOLINA-VELAZQUEZ","latitude":40.43749235628,"longitude":-3.6824740968082},{"line":12,"secDetail":10,"orderDetail":"1","node":791,"distance":3889,"distancePreviousStop":219,"name":"MARIA DE MOLINA-PRINCIPE VERGARA","latitude":40.437345350441,"longitude":-3.6799022980859},{"line":12,"secDetail":10,"orderDetail":"1","node":789,"distance":4153,"distancePreviousStop":264,"name":"FCO.SILVELA-AV.AMERICA","latitude":40.436910502545,"longitude":-3.6772450892128},{"line":12,"secDetail":10,"orderDetail":"1","node":786,"distance":4590,"distancePreviousStop":437,"name":"FCO.SILVELA-DIEGO DE LEON","latitude":40.433866570391,"longitude":-3.6739770636241},{"line":12,"secDetail":10,"orderDetail":"1","node":811,"distance":4938,"distancePreviousStop":348,"name":"FCO.SILVELA-PADILLA","latitude":40.431293470648,"longitude":-3.6718363603189},{"line":12,"secDetail":10,"orderDetail":"1","node":783,"distance":5222,"distancePreviousStop":284,"name":"FCO.SILVELA-PZA.M.BECERRA","latitude":40.429132844103,"longitude":-3.6700229314717},{"line":12,"secDetail":10,"orderDetail":"1","node":685,"distance":5653,"distancePreviousStop":431,"name":"ALCALA N\u00ba 168","latitude":40.429000279455,"longitude":-3.6664613468075},{"line":12,"secDetail":10,"orderDetail":"1","node":686,"distance":5829,"distancePreviousStop":176,"name":"ALCALA-BOCANGEL","latitude":40.429866056117,"longitude":-3.6647368928149},{"line":12,"secDetail":10,"orderDetail":"1","node":812,"distance":6103,"distancePreviousStop":274,"name":"PZA.AMERICA ESPA\u00d1OLA","latitude":40.429211546968,"longitude":-3.6626202156323},{"line":12,"secDetail":10,"orderDetail":"1","node":813,"distance":6316,"distancePreviousStop":213,"name":"SANCHO DAVILA N\u00ba 18","latitude":40.427430850653,"longitude":-3.6620840361004},{"line":12,"secDetail":10,"orderDetail":"1","node":779,"distance":6566,"distancePreviousStop":250,"name":"SANCHO DAVILA-MQUES.DE ZAFRA","latitude":40.425180228471,"longitude":-3.6618026239778},{"line":12,"secDetail":20,"orderDetail":"1","node":779,"distance":0,"distancePreviousStop":0,"name":"SANCHO DAVILA-MQUES.DE ZAFRA","latitude":40.425180228471,"longitude":-3.6618026239778},{"line":12,"secDetail":20,"orderDetail":"1","node":780,"distance":264,"distancePreviousStop":264,"name":"MQUES.DE ZAFRA-RUFINO BLANCO","latitude":40.425815112234,"longitude":-3.6642018953536},{"line":12,"secDetail":20,"orderDetail":"1","node":781,"distance":529,"distancePreviousStop":265,"name":"MQUES.DE ZAFRA-MQUES.MONDEJAR","latitude":40.426672232439,"longitude":-3.6671103141711},{"line":12,"secDetail":20,"orderDetail":"1","node":1428,"distance":724,"distancePreviousStop":195,"name":"PZA.MANUEL BECERRA-DR.ESQUERDO","latitude":40.42768426097,"longitude":-3.668145934364},{"line":12,"secDetail":20,"orderDetail":"1","node":782,"distance":987,"distancePreviousStop":263,"name":"FCO.SILVELA-PZA.M.BECERRA","latitude":40.429432239017,"longitude":-3.669660442491},{"line":12,"secDetail":20,"orderDetail":"1","node":784,"distance":1405,"distancePreviousStop":418,"name":"FCO.SILVELA-AZCONA","latitude":40.432569990712,"longitude":-3.6723088591194},{"line":12,"secDetail":20,"orderDetail":"1","node":5296,"distance":1657,"distancePreviousStop":252,"name":"FCO.SILVELA-DIEGO DE LEON","latitude":40.434442860151,"longitude":-3.6740252616184},{"line":12,"secDetail":20,"orderDetail":"1","node":788,"distance":1966,"distancePreviousStop":309,"name":"FCO.SILVELA-AV.AMERICA","latitude":40.436618678545,"longitude":-3.6763107274354},{"line":12,"secDetail":20,"orderDetail":"1","node":790,"distance":2197,"distancePreviousStop":231,"name":"MARIA DE MOLINA-PRINCIPE VERGARA","latitude":40.437551224233,"longitude":-3.678595631041},{"line":12,"secDetail":20,"orderDetail":"1","node":792,"distance":2522,"distancePreviousStop":325,"name":"MARIA DE MOLINA-VELAZQUEZ","latitude":40.437789910982,"longitude":-3.6824299437362},{"line":12,"secDetail":20,"orderDetail":"1","node":533,"distance":2921,"distancePreviousStop":399,"name":"MARIA DE MOLINA-SERRANO","latitude":40.437936027306,"longitude":-3.6866606824371},{"line":12,"secDetail":20,"orderDetail":"1","node":794,"distance":3259,"distancePreviousStop":338,"name":"P\u00ba CASTELLANA-MARIA DE MOLINA","latitude":40.438428137585,"longitude":-3.6902535717567},{"line":12,"secDetail":20,"orderDetail":"1","node":795,"distance":3516,"distancePreviousStop":257,"name":"P\u00ba CASTELLANA-VITRUVIO","latitude":40.440431928633,"longitude":-3.6911230160248},{"line":12,"secDetail":20,"orderDetail":"1","node":796,"distance":3997,"distancePreviousStop":481,"name":"RIOS ROSAS-MODESTO LAFUENTE","latitude":40.441810541643,"longitude":-3.6955871335877},{"line":12,"secDetail":20,"orderDetail":"1","node":797,"distance":4208,"distancePreviousStop":211,"name":"RIOS ROSAS-ALONSO CANO","latitude":40.441932549421,"longitude":-3.6977650501402},{"line":12,"secDetail":20,"orderDetail":"1","node":798,"distance":4518,"distancePreviousStop":310,"name":"RIOS ROSAS-SANTA ENGRACIA","latitude":40.44212691528,"longitude":-3.7013751827826},{"line":12,"secDetail":20,"orderDetail":"1","node":799,"distance":4794,"distancePreviousStop":276,"name":"PZA.JUAN ZORRILLA","latitude":40.44212506987,"longitude":-3.7046413396722},{"line":12,"secDetail":20,"orderDetail":"1","node":800,"distance":5176,"distancePreviousStop":382,"name":"AV.FILIPINAS-VALLEHERMOSO","latitude":40.44072149676,"longitude":-3.7087653255507},{"line":12,"secDetail":20,"orderDetail":"1","node":801,"distance":5505,"distancePreviousStop":329,"name":"AV.FILIPINAS-GUZMAN EL BUENO","latitude":40.439429801862,"longitude":-3.712253619706},{"line":12,"secDetail":20,"orderDetail":"1","node":4541,"distance":5832,"distancePreviousStop":327,"name":"CEA BERMUDEZ-GAZTAMBIDE","latitude":40.439362110167,"longitude":-3.7159198322604},{"line":14,"secDetail":10,"orderDetail":"1","node":2124,"distance":0,"distancePreviousStop":0,"name":"PZA.CONDE DE CASAL","latitude":40.406648425304,"longitude":-3.6696938416872},{"line":14,"secDetail":10,"orderDetail":"1","node":2125,"distance":114,"distancePreviousStop":114,"name":"AV.MEDITERRANEO-PZA.CONDE CASAL","latitude":40.406983640863,"longitude":-3.6709228174891},{"line":14,"secDetail":10,"orderDetail":"1","node":2127,"distance":322,"distancePreviousStop":208,"name":"AV.MEDITERRANEO-ABTAO","latitude":40.407203747869,"longitude":-3.6733527470308},{"line":14,"secDetail":10,"orderDetail":"1","node":2129,"distance":722,"distancePreviousStop":400,"name":"AV.MEDITERRANEO-PZA.MARIANO DE CAVIA","latitude":40.407635974813,"longitude":-3.6780122238474},{"line":14,"secDetail":10,"orderDetail":"1","node":2049,"distance":1125,"distancePreviousStop":403,"name":"P\u00ba REINA CRISTINA-ANDRES TORREJON","latitude":40.40705962711,"longitude":-3.6825672876506},{"line":14,"secDetail":10,"orderDetail":"1","node":2047,"distance":1390,"distancePreviousStop":265,"name":"P\u00ba INFANTA ISABEL N\u00ba 29","latitude":40.40655511385,"longitude":-3.6856145178306},{"line":14,"secDetail":10,"orderDetail":"1","node":2045,"distance":1634,"distancePreviousStop":244,"name":"P\u00ba INFANTA ISABEL-ALFONSO XII","latitude":40.407089645111,"longitude":-3.6881419616932},{"line":14,"secDetail":10,"orderDetail":"1","node":5453,"distance":1969,"distancePreviousStop":335,"name":"P\u00ba INFANTA ISABEL-MINISTERIO AGRICULTURA","latitude":40.408917879735,"longitude":-3.6912601583189},{"line":14,"secDetail":10,"orderDetail":"1","node":82,"distance":2132,"distancePreviousStop":163,"name":"P\u00ba PRADO-ATOCHA","latitude":40.409966391135,"longitude":-3.6921854524354},{"line":14,"secDetail":10,"orderDetail":"1","node":5511,"distance":2472,"distancePreviousStop":340,"name":"P\u00ba PRADO-PZA.MURILLO","latitude":40.412989512767,"longitude":-3.6928340247899},{"line":14,"secDetail":10,"orderDetail":"1","node":78,"distance":2788,"distancePreviousStop":316,"name":"PZA.CANOVAS DEL CASTILLO","latitude":40.415545422538,"longitude":-3.693272773093},{"line":14,"secDetail":10,"orderDetail":"1","node":5443,"distance":3136,"distancePreviousStop":348,"name":"P\u00ba PRADO-PZA.DE CIBELES","latitude":40.418565421775,"longitude":-3.6929383718293},{"line":14,"secDetail":10,"orderDetail":"1","node":72,"distance":3342,"distancePreviousStop":206,"name":"P\u00ba RECOLETOS-PZA.DE CIBELES","latitude":40.420263812809,"longitude":-3.6921518954624},{"line":14,"secDetail":10,"orderDetail":"1","node":65,"distance":3755,"distancePreviousStop":413,"name":"P\u00ba RECOLETOS-BIBLIOTECA NACIONAL","latitude":40.423787005419,"longitude":-3.6905282512026},{"line":14,"secDetail":10,"orderDetail":"1","node":66,"distance":4007,"distancePreviousStop":252,"name":"P\u00ba CASTELLANA-PZA.DE COLON","latitude":40.426034088731,"longitude":-3.6898816486698},{"line":14,"secDetail":10,"orderDetail":"1","node":62,"distance":4362,"distancePreviousStop":355,"name":"P\u00ba CASTELLANA-MQUES.VILLAMAGNA","latitude":40.429164972366,"longitude":-3.6890789811533},{"line":14,"secDetail":10,"orderDetail":"1","node":60,"distance":4798,"distancePreviousStop":436,"name":"P\u00ba CASTELLANA-P\u00ba EDUARDO DATO","latitude":40.43315284451,"longitude":-3.6880833757818},{"line":14,"secDetail":10,"orderDetail":"1","node":5333,"distance":5110,"distancePreviousStop":312,"name":"P\u00ba CASTELLANA-GTA.EMILIO CASTELAR","latitude":40.435735781925,"longitude":-3.6885235409517},{"line":14,"secDetail":10,"orderDetail":"1","node":56,"distance":5475,"distancePreviousStop":365,"name":"PZA.DOCTOR MARA\u00d1ON","latitude":40.438301091235,"longitude":-3.6904079081039},{"line":14,"secDetail":10,"orderDetail":"1","node":54,"distance":5798,"distancePreviousStop":323,"name":"PZA.SAN JUAN DE LA CRUZ","latitude":40.441070041002,"longitude":-3.6913771637189},{"line":14,"secDetail":10,"orderDetail":"1","node":52,"distance":6091,"distancePreviousStop":293,"name":"P\u00ba CASTELLANA-JORGE MANRIQUE","latitude":40.443683942737,"longitude":-3.691156323728},{"line":14,"secDetail":10,"orderDetail":"1","node":2131,"distance":6463,"distancePreviousStop":372,"name":"P\u00ba CASTELLANA-P\u00ba DE LA HABANA","latitude":40.44677725815,"longitude":-3.690610199767},{"line":14,"secDetail":10,"orderDetail":"1","node":2132,"distance":6741,"distancePreviousStop":278,"name":"P\u00ba HABANA-BALBINA VALVERDE","latitude":40.448822291814,"longitude":-3.6890981186144},{"line":14,"secDetail":10,"orderDetail":"1","node":2133,"distance":7120,"distancePreviousStop":379,"name":"P\u00ba HABANA-PZA.SAGRADOS CORAZONES","latitude":40.451380601593,"longitude":-3.686105276227},{"line":14,"secDetail":10,"orderDetail":"1","node":2134,"distance":7401,"distancePreviousStop":281,"name":"P\u00ba HABANA-CREVILLENTE","latitude":40.453254906994,"longitude":-3.6845086718688},{"line":14,"secDetail":10,"orderDetail":"1","node":2136,"distance":7678,"distancePreviousStop":277,"name":"P\u00ba HABANA-HERREROS DE TEJADA","latitude":40.455096499993,"longitude":-3.6823455590028},{"line":14,"secDetail":10,"orderDetail":"1","node":2138,"distance":7976,"distancePreviousStop":298,"name":"P\u00ba HABANA-VERACRUZ","latitude":40.457382219507,"longitude":-3.6812482609657},{"line":14,"secDetail":10,"orderDetail":"1","node":2140,"distance":8267,"distancePreviousStop":291,"name":"P\u00ba HABANA-HONDURAS","latitude":40.459670894502,"longitude":-3.6811770257518},{"line":14,"secDetail":10,"orderDetail":"1","node":2142,"distance":8566,"distancePreviousStop":299,"name":"P\u00ba HABANA-MACARENA","latitude":40.462270991683,"longitude":-3.6802361185932},{"line":14,"secDetail":10,"orderDetail":"1","node":2144,"distance":8825,"distancePreviousStop":259,"name":"P\u00ba HABANA-JEREZ","latitude":40.464553916865,"longitude":-3.6796104147034},{"line":14,"secDetail":10,"orderDetail":"1","node":2146,"distance":9059,"distancePreviousStop":234,"name":"P\u00ba HABANA-MENENDEZ PIDAL","latitude":40.46663782322,"longitude":-3.6791242117676},{"line":14,"secDetail":10,"orderDetail":"1","node":2148,"distance":9347,"distancePreviousStop":288,"name":"PZA.DUQUE DE PASTRANA","latitude":40.468178840953,"longitude":-3.6775036552687},{"line":14,"secDetail":10,"orderDetail":"1","node":2150,"distance":9633,"distancePreviousStop":286,"name":"AV.BURGOS-MARQUES DE TORROJA","latitude":40.470385252495,"longitude":-3.6760949502801},{"line":14,"secDetail":10,"orderDetail":"1","node":122,"distance":9951,"distancePreviousStop":318,"name":"AV.PIO XII-AV.BURGOS","latitude":40.472084424885,"longitude":-3.675152937038},{"line":14,"secDetail":20,"orderDetail":"1","node":122,"distance":0,"distancePreviousStop":0,"name":"AV.PIO XII-AV.BURGOS","latitude":40.472084424885,"longitude":-3.675152937038},{"line":14,"secDetail":20,"orderDetail":"1","node":2151,"distance":484,"distancePreviousStop":484,"name":"AV.BURGOS-MARQUES DE TORROJA","latitude":40.469906085486,"longitude":-3.6763850475996},{"line":14,"secDetail":20,"orderDetail":"1","node":2149,"distance":714,"distancePreviousStop":230,"name":"PZA.DUQUE DE PASTRANA","latitude":40.468365685269,"longitude":-3.6779030530339},{"line":14,"secDetail":20,"orderDetail":"1","node":2147,"distance":963,"distancePreviousStop":249,"name":"P\u00ba HABANA-MENENDEZ PIDAL","latitude":40.466663947184,"longitude":-3.6792778170597},{"line":14,"secDetail":20,"orderDetail":"1","node":2145,"distance":1196,"distancePreviousStop":233,"name":"P\u00ba HABANA-JEREZ","latitude":40.4645980569,"longitude":-3.6797641970534},{"line":14,"secDetail":20,"orderDetail":"1","node":2143,"distance":1447,"distancePreviousStop":251,"name":"P\u00ba HABANA-MACARENA","latitude":40.462396136556,"longitude":-3.6804025082734},{"line":14,"secDetail":20,"orderDetail":"1","node":2141,"distance":1808,"distancePreviousStop":361,"name":"P\u00ba HABANA-ALBERTO ALCOCER","latitude":40.459307988487,"longitude":-3.6816097478327},{"line":14,"secDetail":20,"orderDetail":"1","node":2139,"distance":2006,"distancePreviousStop":198,"name":"P\u00ba HABANA-VERACRUZ","latitude":40.457614002968,"longitude":-3.6816633910445},{"line":14,"secDetail":20,"orderDetail":"1","node":2137,"distance":2360,"distancePreviousStop":354,"name":"P\u00ba HABANA-HERREROS DE TEJADA","latitude":40.455148600368,"longitude":-3.6826763050377},{"line":14,"secDetail":20,"orderDetail":"1","node":2135,"distance":2667,"distancePreviousStop":307,"name":"P\u00ba HABANA-CREVILLENTE","latitude":40.453062378403,"longitude":-3.6850727902032},{"line":14,"secDetail":20,"orderDetail":"1","node":96,"distance":2889,"distancePreviousStop":222,"name":"CONCHA ESPINA-PZA.SAGRADOS CORAZONES","latitude":40.451998690079,"longitude":-3.686698853358},{"line":14,"secDetail":20,"orderDetail":"1","node":41,"distance":3468,"distancePreviousStop":579,"name":"P\u00ba CASTELLANA-PZA.DE LIMA","latitude":40.451414072027,"longitude":-3.6910727772308},{"line":14,"secDetail":20,"orderDetail":"1","node":46,"distance":3733,"distancePreviousStop":265,"name":"P\u00ba CASTELLANA-AZCA","latitude":40.449332201556,"longitude":-3.6912094701358},{"line":14,"secDetail":20,"orderDetail":"1","node":48,"distance":3993,"distancePreviousStop":260,"name":"P\u00ba CASTELLANA-RAIMUNDO F.VILLAVERDE","latitude":40.446510644744,"longitude":-3.6915060226941},{"line":14,"secDetail":20,"orderDetail":"1","node":49,"distance":4128,"distancePreviousStop":135,"name":"P\u00ba CASTELLANA-NUEVOS MINISTERIOS","latitude":40.445311279473,"longitude":-3.691703624733},{"line":14,"secDetail":20,"orderDetail":"1","node":51,"distance":4275,"distancePreviousStop":147,"name":"P\u00ba CASTELLANA-NUEVOS MINISTERIOS","latitude":40.443995214501,"longitude":-3.6918316322215},{"line":14,"secDetail":20,"orderDetail":"1","node":53,"distance":4615,"distancePreviousStop":340,"name":"PZA.SAN JUAN DE LA CRUZ","latitude":40.440929976673,"longitude":-3.6922011018695},{"line":14,"secDetail":20,"orderDetail":"1","node":4337,"distance":4947,"distancePreviousStop":332,"name":"P\u00ba CASTELLANA-PZA.DR.MARA\u00d1ON","latitude":40.438449343669,"longitude":-3.6912276931969},{"line":14,"secDetail":20,"orderDetail":"1","node":57,"distance":5365,"distancePreviousStop":418,"name":"GTA.EMILIO CASTELAR","latitude":40.434920525794,"longitude":-3.689270963356},{"line":14,"secDetail":20,"orderDetail":"1","node":59,"distance":5630,"distancePreviousStop":265,"name":"P\u00ba CASTELLANA-P\u00ba EDUARDO DATO","latitude":40.432923247392,"longitude":-3.6888178883276},{"line":14,"secDetail":20,"orderDetail":"1","node":61,"distance":6071,"distancePreviousStop":441,"name":"P\u00ba CASTELLANA-MINISTERIO INTERIOR","latitude":40.429079559378,"longitude":-3.6898054891506},{"line":14,"secDetail":20,"orderDetail":"1","node":63,"distance":6437,"distancePreviousStop":366,"name":"P\u00ba CASTELLANA-PZA.DE COLON","latitude":40.425813390387,"longitude":-3.6906326727298},{"line":14,"secDetail":20,"orderDetail":"1","node":64,"distance":6550,"distancePreviousStop":113,"name":"PZA.DE COLON-P\u00ba RECOLETOS","latitude":40.424785456574,"longitude":-3.6907860148384},{"line":14,"secDetail":20,"orderDetail":"1","node":68,"distance":6783,"distancePreviousStop":233,"name":"P\u00ba RECOLETOS-BARBARA DE BRAGANZA","latitude":40.422799068204,"longitude":-3.6915260119331},{"line":14,"secDetail":20,"orderDetail":"1","node":73,"distance":7112,"distancePreviousStop":329,"name":"P\u00ba RECOLETOS-PZA.DE CIBELES","latitude":40.420142736182,"longitude":-3.6928131071937},{"line":14,"secDetail":20,"orderDetail":"1","node":76,"distance":7406,"distancePreviousStop":294,"name":"P\u00ba PRADO-BANCO DE ESPA\u00d1A","latitude":40.417728731162,"longitude":-3.6942499304637},{"line":14,"secDetail":20,"orderDetail":"1","node":77,"distance":7710,"distancePreviousStop":304,"name":"PZA.CANOVAS DEL CASTILLO","latitude":40.415032569818,"longitude":-3.6946642119763},{"line":14,"secDetail":20,"orderDetail":"1","node":79,"distance":8050,"distancePreviousStop":340,"name":"P\u00ba PRADO-PZA.PLATERIA MTNEZ.","latitude":40.412274196989,"longitude":-3.6934360264326},{"line":14,"secDetail":20,"orderDetail":"1","node":81,"distance":8328,"distancePreviousStop":278,"name":"P\u00ba PRADO-ATOCHA","latitude":40.409828569136,"longitude":-3.6926342507736},{"line":14,"secDetail":20,"orderDetail":"1","node":1401,"distance":8800,"distancePreviousStop":472,"name":"INTERCAMBIADOR ATOCHA-RENFE","latitude":40.406642491807,"longitude":-3.6891014253288},{"line":14,"secDetail":20,"orderDetail":"1","node":2046,"distance":9193,"distancePreviousStop":393,"name":"P\u00ba REINA CRISTINA N\u00ba 2","latitude":40.406370127719,"longitude":-3.6849055398761},{"line":14,"secDetail":20,"orderDetail":"1","node":2048,"distance":9470,"distancePreviousStop":277,"name":"P\u00ba REINA CRISTINA-ANDRES TORREJON","latitude":40.406884464588,"longitude":-3.6817169905367},{"line":14,"secDetail":20,"orderDetail":"1","node":2130,"distance":9828,"distancePreviousStop":358,"name":"AV.MEDITERRANEO-PZA.MARIANO DE CAVIA","latitude":40.407258173642,"longitude":-3.6779141511418},{"line":14,"secDetail":20,"orderDetail":"1","node":2128,"distance":10203,"distancePreviousStop":375,"name":"AV.MEDITERRANEO-ABTAO","latitude":40.406973441261,"longitude":-3.6742249079093},{"line":14,"secDetail":20,"orderDetail":"1","node":2126,"distance":10417,"distancePreviousStop":214,"name":"AV.MEDITERRANEO-PZA.CONDE CASAL","latitude":40.406613405666,"longitude":-3.6710723468199},{"line":14,"secDetail":20,"orderDetail":"1","node":2124,"distance":10570,"distancePreviousStop":153,"name":"PZA.CONDE DE CASAL","latitude":40.406648425304,"longitude":-3.6696938416872},{"line":15,"secDetail":10,"orderDetail":"1","node":95,"distance":0,"distancePreviousStop":0,"name":"PUERTA DEL SOL","latitude":40.416894385199,"longitude":-3.7026206219596},{"line":15,"secDetail":10,"orderDetail":"1","node":91,"distance":420,"distancePreviousStop":420,"name":"ALCALA-CEDACEROS","latitude":40.41792620378,"longitude":-3.6988559725528},{"line":15,"secDetail":10,"orderDetail":"1","node":70,"distance":921,"distancePreviousStop":501,"name":"PZA.DE CIBELES","latitude":40.419058253984,"longitude":-3.6933819132413},{"line":15,"secDetail":10,"orderDetail":"1","node":162,"distance":1416,"distancePreviousStop":495,"name":"PUERTA DE ALCALA","latitude":40.419602319265,"longitude":-3.68826826599},{"line":15,"secDetail":10,"orderDetail":"1","node":750,"distance":1608,"distancePreviousStop":192,"name":"ALCALA-RETIRO","latitude":40.420271276516,"longitude":-3.6863666974718},{"line":15,"secDetail":10,"orderDetail":"1","node":751,"distance":2093,"distancePreviousStop":485,"name":"ALCALA-AV.MENENDEZ PELAYO","latitude":40.422366991005,"longitude":-3.6808418358621},{"line":15,"secDetail":10,"orderDetail":"1","node":2152,"distance":2538,"distancePreviousStop":445,"name":"AV.FELIPE II-ALCALA","latitude":40.423841393712,"longitude":-3.6767603494178},{"line":15,"secDetail":10,"orderDetail":"1","node":2154,"distance":2961,"distancePreviousStop":423,"name":"NARVAEZ-O DONNELL","latitude":40.421015650625,"longitude":-3.6762369521123},{"line":15,"secDetail":10,"orderDetail":"1","node":2156,"distance":3238,"distancePreviousStop":277,"name":"NARVAEZ-IBIZA","latitude":40.418527949875,"longitude":-3.6764477850259},{"line":15,"secDetail":10,"orderDetail":"1","node":2158,"distance":3473,"distancePreviousStop":235,"name":"SAINZ DE BARANDA-NARVAEZ","latitude":40.416784817753,"longitude":-3.6756606461639},{"line":15,"secDetail":10,"orderDetail":"1","node":2160,"distance":3749,"distancePreviousStop":276,"name":"SAINZ DE BARANDA-MAIQUEZ","latitude":40.416629296716,"longitude":-3.6729775915408},{"line":15,"secDetail":10,"orderDetail":"1","node":2162,"distance":3966,"distancePreviousStop":217,"name":"SAINZ DE BARANDA-DR.ESQUERDO","latitude":40.416404152854,"longitude":-3.6698612836162},{"line":15,"secDetail":10,"orderDetail":"1","node":2164,"distance":4166,"distancePreviousStop":200,"name":"SAINZ DE BARANDA-MARQUES DE LOZOYA","latitude":40.41713756947,"longitude":-3.6676655862143},{"line":15,"secDetail":10,"orderDetail":"1","node":2166,"distance":4412,"distancePreviousStop":246,"name":"SAINZ DE BARANDA-JUAN ESPLANDIU","latitude":40.418618861818,"longitude":-3.6654394913287},{"line":15,"secDetail":10,"orderDetail":"1","node":2168,"distance":4875,"distancePreviousStop":463,"name":"ALCALDE SAINZ DE BARANDA-R.T.V.E.","latitude":40.421241180953,"longitude":-3.6621765857948},{"line":15,"secDetail":10,"orderDetail":"1","node":958,"distance":5463,"distancePreviousStop":588,"name":"AV.MQUES.CORBERA-RICARDO ORTIZ","latitude":40.422683180497,"longitude":-3.6557545486741},{"line":15,"secDetail":10,"orderDetail":"1","node":960,"distance":5715,"distancePreviousStop":252,"name":"AV.MQUES.CORBERA N\u00ba 30","latitude":40.424218023035,"longitude":-3.6535768601108},{"line":15,"secDetail":10,"orderDetail":"1","node":962,"distance":5950,"distancePreviousStop":235,"name":"AV.MQUES.CORBERA N\u00ba 48","latitude":40.425751403291,"longitude":-3.6516513307035},{"line":15,"secDetail":10,"orderDetail":"1","node":964,"distance":6077,"distancePreviousStop":127,"name":"AV.MQUES.CORBERA-STA.FELICIDAD","latitude":40.426559090546,"longitude":-3.650605229725},{"line":15,"secDetail":10,"orderDetail":"1","node":4369,"distance":6217,"distancePreviousStop":140,"name":"SANTA PRISCA","latitude":40.426890750934,"longitude":-3.6492998900964},{"line":15,"secDetail":10,"orderDetail":"1","node":4474,"distance":6485,"distancePreviousStop":268,"name":"PZA.AGUSTIN GONZALEZ","latitude":40.427496876481,"longitude":-3.6472426940641},{"line":15,"secDetail":20,"orderDetail":"1","node":4474,"distance":0,"distancePreviousStop":0,"name":"PZA.AGUSTIN GONZALEZ","latitude":40.427496876481,"longitude":-3.6472426940641},{"line":15,"secDetail":20,"orderDetail":"1","node":4370,"distance":115,"distancePreviousStop":115,"name":"SANTA PRISCA N\u00ba 1","latitude":40.427151863566,"longitude":-3.6493259785194},{"line":15,"secDetail":20,"orderDetail":"1","node":965,"distance":309,"distancePreviousStop":194,"name":"AV.MQUES.CORBERA-STA.FELICIDAD","latitude":40.42685577223,"longitude":-3.6507141860328},{"line":15,"secDetail":20,"orderDetail":"1","node":963,"distance":448,"distancePreviousStop":139,"name":"AV.MQUES.CORBERA N\u00ba 49","latitude":40.425984320379,"longitude":-3.6518846322988},{"line":15,"secDetail":20,"orderDetail":"1","node":961,"distance":689,"distancePreviousStop":241,"name":"AV.MQUES.CORBERA N\u00ba 27","latitude":40.42449515181,"longitude":-3.6539567646057},{"line":15,"secDetail":20,"orderDetail":"1","node":959,"distance":940,"distancePreviousStop":251,"name":"AV.MQUES.CORBERA-RICARDO ORTIZ","latitude":40.422924535989,"longitude":-3.6560869541021},{"line":15,"secDetail":20,"orderDetail":"1","node":2169,"distance":1523,"distancePreviousStop":583,"name":"ALCALDE SAINZ DE BARANDA-R.T.V.E.","latitude":40.421466223058,"longitude":-3.6622082616415},{"line":15,"secDetail":20,"orderDetail":"1","node":2167,"distance":2000,"distancePreviousStop":477,"name":"SAINZ DE BARANDA-JUAN ESPLANDIU","latitude":40.418652316759,"longitude":-3.6658877332148},{"line":15,"secDetail":20,"orderDetail":"1","node":2165,"distance":2219,"distancePreviousStop":219,"name":"SAINZ DE BARANDA-MARQUES DE LOZOYA","latitude":40.417372088176,"longitude":-3.6676160420334},{"line":15,"secDetail":20,"orderDetail":"1","node":2163,"distance":2459,"distancePreviousStop":240,"name":"SAINZ DE BARANDA-DR.ESQUERDO","latitude":40.416700044504,"longitude":-3.6701034907171},{"line":15,"secDetail":20,"orderDetail":"1","node":2161,"distance":2710,"distancePreviousStop":251,"name":"SAINZ DE BARANDA-MAIQUEZ","latitude":40.416872647623,"longitude":-3.6729587999751},{"line":15,"secDetail":20,"orderDetail":"1","node":2159,"distance":2957,"distancePreviousStop":247,"name":"SAINZ DE BARANDA-NARVAEZ","latitude":40.417026453578,"longitude":-3.6759353403075},{"line":15,"secDetail":20,"orderDetail":"1","node":2157,"distance":3172,"distancePreviousStop":215,"name":"NARVAEZ-IBIZA","latitude":40.41859310467,"longitude":-3.6760901082608},{"line":15,"secDetail":20,"orderDetail":"1","node":2155,"distance":3453,"distancePreviousStop":281,"name":"NARVAEZ-O DONNELL","latitude":40.421108009237,"longitude":-3.6758488865365},{"line":15,"secDetail":20,"orderDetail":"1","node":2153,"distance":3829,"distancePreviousStop":376,"name":"INTERCAMBIADOR FELIPE II","latitude":40.424294766144,"longitude":-3.6762603608148},{"line":15,"secDetail":20,"orderDetail":"1","node":778,"distance":4126,"distancePreviousStop":297,"name":"ALCALA-PRINCIPE DE VERGARA","latitude":40.423175729681,"longitude":-3.6796617649394},{"line":15,"secDetail":20,"orderDetail":"1","node":752,"distance":4289,"distancePreviousStop":163,"name":"ALCALA-CASTELLO","latitude":40.422390689817,"longitude":-3.6814067109559},{"line":15,"secDetail":20,"orderDetail":"1","node":160,"distance":4898,"distancePreviousStop":609,"name":"ALCALA-CLAUDIO COELLO","latitude":40.42041678464,"longitude":-3.6876530099512},{"line":15,"secDetail":20,"orderDetail":"1","node":161,"distance":5034,"distancePreviousStop":136,"name":"PUERTA DE ALCALA","latitude":40.420587758023,"longitude":-3.6891989125635},{"line":15,"secDetail":20,"orderDetail":"1","node":69,"distance":5449,"distancePreviousStop":415,"name":"PZA.DE CIBELES","latitude":40.419696944052,"longitude":-3.6935393486955},{"line":15,"secDetail":20,"orderDetail":"1","node":713,"distance":5860,"distancePreviousStop":411,"name":"ALCALA-GRAN VIA","latitude":40.418443298768,"longitude":-3.6982625379126},{"line":15,"secDetail":20,"orderDetail":"1","node":95,"distance":6309,"distancePreviousStop":449,"name":"PUERTA DEL SOL","latitude":40.416894385199,"longitude":-3.7026206219596},{"line":19,"secDetail":10,"orderDetail":"1","node":5167,"distance":0,"distancePreviousStop":0,"name":"PZA.DE CATALU\u00d1A N\u00ba 4","latitude":40.448515796582,"longitude":-3.678470058948},{"line":19,"secDetail":10,"orderDetail":"1","node":417,"distance":428,"distancePreviousStop":428,"name":"AV.DR.ARCE-PZA.SANTA GEMA","latitude":40.447438596745,"longitude":-3.6808766245711},{"line":19,"secDetail":10,"orderDetail":"1","node":536,"distance":699,"distancePreviousStop":271,"name":"AV.DOCTOR ARCE-VELAZQUEZ","latitude":40.445982856809,"longitude":-3.6833028637039},{"line":19,"secDetail":10,"orderDetail":"1","node":443,"distance":1003,"distancePreviousStop":304,"name":"SERRANO-PZA.REP.ARGENTINA","latitude":40.444417846895,"longitude":-3.6859165543928},{"line":19,"secDetail":10,"orderDetail":"1","node":444,"distance":1221,"distancePreviousStop":218,"name":"SERRANO-INST.RAMIRO DE MAEZTU","latitude":40.442461563997,"longitude":-3.6861442861621},{"line":19,"secDetail":10,"orderDetail":"1","node":445,"distance":1419,"distancePreviousStop":198,"name":"SERRANO N\u00ba 111","latitude":40.440686077315,"longitude":-3.6862677253649},{"line":19,"secDetail":10,"orderDetail":"1","node":446,"distance":1686,"distancePreviousStop":267,"name":"SERRANO-MARIA DE MOLINA","latitude":40.438279654521,"longitude":-3.6864436947154},{"line":19,"secDetail":10,"orderDetail":"1","node":447,"distance":1965,"distancePreviousStop":279,"name":"SERRANO-GRAL.ORAA","latitude":40.435782796757,"longitude":-3.6866776834809},{"line":19,"secDetail":10,"orderDetail":"1","node":448,"distance":2181,"distancePreviousStop":216,"name":"SERRANO-MALDONADO","latitude":40.433845016938,"longitude":-3.6868230272195},{"line":19,"secDetail":10,"orderDetail":"1","node":4710,"distance":2334,"distancePreviousStop":153,"name":"SERRANO-PADILLA","latitude":40.432466105721,"longitude":-3.6869151030723},{"line":19,"secDetail":10,"orderDetail":"1","node":449,"distance":2658,"distancePreviousStop":324,"name":"SERRANO-MQUES.VILLAMAGNA","latitude":40.429572175526,"longitude":-3.6872629062896},{"line":19,"secDetail":10,"orderDetail":"1","node":450,"distance":2788,"distancePreviousStop":130,"name":"SERRANO-AYALA","latitude":40.428417631368,"longitude":-3.6874987192077},{"line":19,"secDetail":10,"orderDetail":"1","node":451,"distance":3052,"distancePreviousStop":264,"name":"SERRANO-GOYA","latitude":40.426054771421,"longitude":-3.6879226199872},{"line":19,"secDetail":10,"orderDetail":"1","node":452,"distance":3394,"distancePreviousStop":342,"name":"SERRANO-MUSEO ARQUEOLOGICO","latitude":40.422997631975,"longitude":-3.688445506034},{"line":19,"secDetail":10,"orderDetail":"1","node":2171,"distance":3878,"distancePreviousStop":484,"name":"ALFONSO XII-PTA.DE ALCALA","latitude":40.418985459266,"longitude":-3.6889821781119},{"line":19,"secDetail":10,"orderDetail":"1","node":2172,"distance":4170,"distancePreviousStop":292,"name":"ALFONSO XII-ANTONIO MAURA","latitude":40.416344665896,"longitude":-3.6891791872235},{"line":19,"secDetail":10,"orderDetail":"1","node":2174,"distance":4591,"distancePreviousStop":421,"name":"ALFONSO XII-ESPALTER","latitude":40.412561701463,"longitude":-3.689046301504},{"line":19,"secDetail":10,"orderDetail":"1","node":2176,"distance":4973,"distancePreviousStop":382,"name":"ALFONSO XII-CLAUDIO MOYANO","latitude":40.40912112391,"longitude":-3.6889051395898},{"line":19,"secDetail":10,"orderDetail":"1","node":2178,"distance":5280,"distancePreviousStop":307,"name":"P\u00ba INFANTA ISABEL-DR.VELASCO","latitude":40.407865021529,"longitude":-3.6895523066201},{"line":19,"secDetail":10,"orderDetail":"1","node":4839,"distance":6127,"distancePreviousStop":847,"name":"BATALLA DEL SALADO-DELICIAS","latitude":40.40445786695,"longitude":-3.6958624053991},{"line":19,"secDetail":10,"orderDetail":"1","node":1976,"distance":6355,"distancePreviousStop":228,"name":"BATALLA DEL SALADO-PALOS FRONTERA","latitude":40.40284418592,"longitude":-3.6960414086423},{"line":19,"secDetail":10,"orderDetail":"1","node":1186,"distance":6614,"distancePreviousStop":259,"name":"BATALLA DEL SALADO-FERROCARRIL","latitude":40.4005182443,"longitude":-3.6963120514262},{"line":19,"secDetail":10,"orderDetail":"1","node":1187,"distance":6918,"distancePreviousStop":304,"name":"BATALLA DEL SALADO-EMBAJADORES","latitude":40.397480296311,"longitude":-3.6966318989564},{"line":19,"secDetail":10,"orderDetail":"1","node":1188,"distance":7271,"distancePreviousStop":353,"name":"EMBAJADORES-PZA.BEATA M\u00aa ANA JESUS","latitude":40.394929198477,"longitude":-3.6953943119606},{"line":19,"secDetail":10,"orderDetail":"1","node":4775,"distance":7456,"distancePreviousStop":185,"name":"EMBAJADORES N\u00ba 184","latitude":40.393457624428,"longitude":-3.6944129867871},{"line":19,"secDetail":10,"orderDetail":"1","node":3557,"distance":7827,"distancePreviousStop":371,"name":"PZA.DE LEGAZPI-BOLIVAR","latitude":40.391383352226,"longitude":-3.6947804980574},{"line":19,"secDetail":20,"orderDetail":"1","node":3557,"distance":0,"distancePreviousStop":0,"name":"PZA.DE LEGAZPI-BOLIVAR","latitude":40.391383352226,"longitude":-3.6947804980574},{"line":19,"secDetail":20,"orderDetail":"1","node":1182,"distance":449,"distancePreviousStop":449,"name":"P\u00ba DELICIAS-ALEJANDRO FERRANT","latitude":40.395304137708,"longitude":-3.6944673060723},{"line":19,"secDetail":20,"orderDetail":"1","node":5036,"distance":720,"distancePreviousStop":271,"name":"P\u00ba DELICIAS-TOMAS BRETON","latitude":40.397729452946,"longitude":-3.6941505047636},{"line":19,"secDetail":20,"orderDetail":"1","node":1183,"distance":943,"distancePreviousStop":223,"name":"P\u00ba DELICIAS-RAMIREZ DE PRADO","latitude":40.400226543856,"longitude":-3.6938827330187},{"line":19,"secDetail":20,"orderDetail":"1","node":1184,"distance":1273,"distancePreviousStop":330,"name":"P\u00ba DELICIAS-PZA.LUCA DE TENA","latitude":40.402688037866,"longitude":-3.6935415143369},{"line":19,"secDetail":20,"orderDetail":"1","node":89,"distance":1681,"distancePreviousStop":408,"name":"P\u00ba DELICIAS-TORTOSA","latitude":40.406564124667,"longitude":-3.6931688236157},{"line":19,"secDetail":20,"orderDetail":"1","node":1166,"distance":2110,"distancePreviousStop":429,"name":"AV.CDAD.BARCELONA-INT.ATOCHA","latitude":40.407597517884,"longitude":-3.6905984615207},{"line":19,"secDetail":20,"orderDetail":"1","node":2177,"distance":2583,"distancePreviousStop":473,"name":"ALFONSO XII-CLAUDIO MOYANO","latitude":40.409195156807,"longitude":-3.6885759003735},{"line":19,"secDetail":20,"orderDetail":"1","node":2175,"distance":2985,"distancePreviousStop":402,"name":"ALFONSO XII-ESPALTER","latitude":40.412806894449,"longitude":-3.6887187908187},{"line":19,"secDetail":20,"orderDetail":"1","node":2173,"distance":3399,"distancePreviousStop":414,"name":"ALFONSO XII-ANTONIO MAURA","latitude":40.416526589816,"longitude":-3.6888863739421},{"line":19,"secDetail":20,"orderDetail":"1","node":162,"distance":3788,"distancePreviousStop":389,"name":"PUERTA DE ALCALA","latitude":40.419602319265,"longitude":-3.68826826599},{"line":19,"secDetail":20,"orderDetail":"1","node":423,"distance":4296,"distancePreviousStop":508,"name":"VELAZQUEZ-VILLANUEVA","latitude":40.422112835908,"longitude":-3.6842164671703},{"line":19,"secDetail":20,"orderDetail":"1","node":424,"distance":4599,"distancePreviousStop":303,"name":"VELAZQUEZ-GOYA","latitude":40.424834625695,"longitude":-3.6840318590608},{"line":19,"secDetail":20,"orderDetail":"1","node":425,"distance":4902,"distancePreviousStop":303,"name":"VELAZQUEZ-AYALA","latitude":40.427556692943,"longitude":-3.6838000855773},{"line":19,"secDetail":20,"orderDetail":"1","node":426,"distance":5177,"distancePreviousStop":275,"name":"VELAZQUEZ-J.ORTEGA Y GASSET","latitude":40.43002680271,"longitude":-3.6835185871379},{"line":19,"secDetail":20,"orderDetail":"1","node":427,"distance":5402,"distancePreviousStop":225,"name":"VELAZQUEZ-JUAN BRAVO","latitude":40.432054455085,"longitude":-3.6834094334988},{"line":19,"secDetail":20,"orderDetail":"1","node":428,"distance":5689,"distancePreviousStop":287,"name":"VELAZQUEZ-DIEGO DE LEON","latitude":40.434632175082,"longitude":-3.6832115230577},{"line":19,"secDetail":20,"orderDetail":"1","node":5377,"distance":6054,"distancePreviousStop":365,"name":"VELAZQUEZ-MARIA DE MOLINA","latitude":40.43791324325,"longitude":-3.6829028116828},{"line":19,"secDetail":20,"orderDetail":"1","node":430,"distance":6255,"distancePreviousStop":201,"name":"VELAZQUEZ-LOPEZ DE HOYOS","latitude":40.439725109515,"longitude":-3.6827207018454},{"line":19,"secDetail":20,"orderDetail":"1","node":431,"distance":6438,"distancePreviousStop":183,"name":"VELAZQUEZ-JOAQUIN COSTA","latitude":40.441374058571,"longitude":-3.6826666374796},{"line":19,"secDetail":20,"orderDetail":"1","node":432,"distance":6631,"distancePreviousStop":193,"name":"VELAZQUEZ N\u00ba 150","latitude":40.443104639396,"longitude":-3.6825190654099},{"line":19,"secDetail":20,"orderDetail":"1","node":418,"distance":6968,"distancePreviousStop":337,"name":"AV.DOCTOR ARCE-VELAZQUEZ","latitude":40.446106790302,"longitude":-3.6821485074053},{"line":19,"secDetail":20,"orderDetail":"1","node":416,"distance":7178,"distancePreviousStop":210,"name":"AV.DR.ARCE-PZA.SANTA GEMA","latitude":40.447359951664,"longitude":-3.6804631048232},{"line":19,"secDetail":20,"orderDetail":"1","node":5167,"distance":7412,"distancePreviousStop":234,"name":"PZA.DE CATALU\u00d1A N\u00ba 4","latitude":40.448515796582,"longitude":-3.678470058948},{"line":20,"secDetail":10,"orderDetail":"1","node":95,"distance":0,"distancePreviousStop":0,"name":"PUERTA DEL SOL","latitude":40.416894385199,"longitude":-3.7026206219596},{"line":20,"secDetail":10,"orderDetail":"1","node":91,"distance":420,"distancePreviousStop":420,"name":"ALCALA-CEDACEROS","latitude":40.41792620378,"longitude":-3.6988559725528},{"line":20,"secDetail":10,"orderDetail":"1","node":70,"distance":912,"distancePreviousStop":492,"name":"PZA.DE CIBELES","latitude":40.419058253984,"longitude":-3.6933819132413},{"line":20,"secDetail":10,"orderDetail":"1","node":162,"distance":1358,"distancePreviousStop":446,"name":"PUERTA DE ALCALA","latitude":40.419602319265,"longitude":-3.68826826599},{"line":20,"secDetail":10,"orderDetail":"1","node":174,"distance":1607,"distancePreviousStop":249,"name":"ALCALA-LAGASCA","latitude":40.42042778365,"longitude":-3.6858013110162},{"line":20,"secDetail":10,"orderDetail":"1","node":2329,"distance":1916,"distancePreviousStop":309,"name":"O DONNELL-ALCALA","latitude":40.421079425217,"longitude":-3.6822492580143},{"line":20,"secDetail":10,"orderDetail":"1","node":195,"distance":2346,"distancePreviousStop":430,"name":"AV.MENENDEZ PELAYO-MENORCA","latitude":40.419582824635,"longitude":-3.6793792494356},{"line":20,"secDetail":10,"orderDetail":"1","node":814,"distance":2668,"distancePreviousStop":322,"name":"AV.MENENDEZ PELAYO-A.SAINZ BARANDA","latitude":40.416768646308,"longitude":-3.6784221389594},{"line":20,"secDetail":10,"orderDetail":"1","node":816,"distance":2948,"distancePreviousStop":280,"name":"HOSPITAL NI\u00d1O JESUS","latitude":40.414332272921,"longitude":-3.677560833061},{"line":20,"secDetail":10,"orderDetail":"1","node":818,"distance":3369,"distancePreviousStop":421,"name":"PZA.NI\u00d1O JESUS","latitude":40.411064138993,"longitude":-3.6756599979067},{"line":20,"secDetail":10,"orderDetail":"1","node":820,"distance":3784,"distancePreviousStop":415,"name":"AV.NAZARET-JESUS APRENDIZ","latitude":40.411269673686,"longitude":-3.671307173532},{"line":20,"secDetail":10,"orderDetail":"1","node":822,"distance":3986,"distancePreviousStop":202,"name":"LOS ASTROS-CRUZ DEL SUR","latitude":40.411157353501,"longitude":-3.6689253147021},{"line":20,"secDetail":10,"orderDetail":"1","node":824,"distance":4287,"distancePreviousStop":301,"name":"ESTRELLA POLAR-PEZ AUSTRAL","latitude":40.410987967157,"longitude":-3.6654939619643},{"line":20,"secDetail":10,"orderDetail":"1","node":826,"distance":4742,"distancePreviousStop":455,"name":"C\u00ba VINATEROS-M30","latitude":40.41060411698,"longitude":-3.6601630166036},{"line":20,"secDetail":10,"orderDetail":"1","node":828,"distance":5133,"distancePreviousStop":391,"name":"CORR.DIEGO VALDERRABANO-LITUANIA","latitude":40.409396331002,"longitude":-3.6602655341139},{"line":20,"secDetail":10,"orderDetail":"1","node":830,"distance":5436,"distancePreviousStop":303,"name":"AV.MORATALAZ N\u00ba 17","latitude":40.407616694868,"longitude":-3.6611178927829},{"line":20,"secDetail":10,"orderDetail":"1","node":832,"distance":5602,"distancePreviousStop":166,"name":"PZA.CORR.ALONSO AGUILAR","latitude":40.407149844508,"longitude":-3.6592571619672},{"line":20,"secDetail":10,"orderDetail":"1","node":5472,"distance":5789,"distancePreviousStop":187,"name":"AV.MORATALAZ-PZA.CORR.ALONSO AGUILAR","latitude":40.406610527687,"longitude":-3.6574605695776},{"line":20,"secDetail":10,"orderDetail":"1","node":834,"distance":6007,"distancePreviousStop":218,"name":"AV.MORATALAZ-PARQUE DARWIN","latitude":40.405984504539,"longitude":-3.6550621315712},{"line":20,"secDetail":10,"orderDetail":"1","node":853,"distance":6373,"distancePreviousStop":366,"name":"HACIENDA DE PAVONES-PZA.DEL ENCUENTRO","latitude":40.40530454015,"longitude":-3.6510369088501},{"line":20,"secDetail":10,"orderDetail":"1","node":837,"distance":6594,"distancePreviousStop":221,"name":"HACIENDA DE PAVONES-ALONSO DE TOBAR","latitude":40.404299365222,"longitude":-3.6487527834093},{"line":20,"secDetail":10,"orderDetail":"1","node":838,"distance":6876,"distancePreviousStop":282,"name":"HACIENDA DE PAVONES-CA\u00d1ADA","latitude":40.403506080467,"longitude":-3.6456222670181},{"line":20,"secDetail":10,"orderDetail":"1","node":840,"distance":7097,"distancePreviousStop":221,"name":"PZA. CORREGIDOR CONDE MACEDA Y TABOADA","latitude":40.402797159573,"longitude":-3.6435060850515},{"line":20,"secDetail":10,"orderDetail":"1","node":843,"distance":7386,"distancePreviousStop":289,"name":"ENCOMIENDA DE PALACIOS-PICO ARTILLEROS","latitude":40.400948842952,"longitude":-3.6437713024631},{"line":20,"secDetail":10,"orderDetail":"1","node":844,"distance":7672,"distancePreviousStop":286,"name":"ENCOMIENDA DE PALACIOS-A.FONTARRON","latitude":40.400533656301,"longitude":-3.6471375744887},{"line":20,"secDetail":10,"orderDetail":"1","node":845,"distance":8034,"distancePreviousStop":362,"name":"ARROYO FONTARRON N\u00ba 169","latitude":40.398343422036,"longitude":-3.6457143503034},{"line":20,"secDetail":10,"orderDetail":"1","node":846,"distance":8247,"distancePreviousStop":213,"name":"ARROYO FONTARRON N\u00ba 245","latitude":40.396831281063,"longitude":-3.6438534502705},{"line":20,"secDetail":10,"orderDetail":"1","node":847,"distance":8769,"distancePreviousStop":522,"name":"FTE.CARRANTONA-ARROYO FONTARRON","latitude":40.396226852668,"longitude":-3.6391308529353},{"line":20,"secDetail":10,"orderDetail":"1","node":5132,"distance":8981,"distancePreviousStop":212,"name":"FTE.CARRANTONA-ENCOMIENDA PALACIOS","latitude":40.397926895632,"longitude":-3.6379803568698},{"line":20,"secDetail":20,"orderDetail":"1","node":5132,"distance":0,"distancePreviousStop":0,"name":"FTE.CARRANTONA-ENCOMIENDA PALACIOS","latitude":40.397926895632,"longitude":-3.6379803568698},{"line":20,"secDetail":20,"orderDetail":"1","node":849,"distance":240,"distancePreviousStop":240,"name":"ENCOMIENDA DE PALACIOS-TACONA","latitude":40.399024264139,"longitude":-3.6399232508493},{"line":20,"secDetail":20,"orderDetail":"1","node":850,"distance":552,"distancePreviousStop":312,"name":"ENCOMIENDA DE PALACIOS-PICO ARTILLEROS","latitude":40.400711185697,"longitude":-3.642767394855},{"line":20,"secDetail":20,"orderDetail":"1","node":841,"distance":888,"distancePreviousStop":336,"name":"PZA.CORR.CONDE MACEDA Y TABOADA","latitude":40.403311496429,"longitude":-3.6433577846673},{"line":20,"secDetail":20,"orderDetail":"1","node":839,"distance":1102,"distancePreviousStop":214,"name":"HACIENDA DE PAVONES-CA\u00d1ADA","latitude":40.40370387249,"longitude":-3.6456948642163},{"line":20,"secDetail":20,"orderDetail":"1","node":851,"distance":1402,"distancePreviousStop":300,"name":"HACIENDA DE PAVONES N\u00ba 15","latitude":40.404568826274,"longitude":-3.6488967871146},{"line":20,"secDetail":20,"orderDetail":"1","node":852,"distance":1639,"distancePreviousStop":237,"name":"PZA.DEL ENCUENTRO","latitude":40.405648255588,"longitude":-3.6507927377451},{"line":20,"secDetail":20,"orderDetail":"1","node":835,"distance":2009,"distancePreviousStop":370,"name":"AV.MORATALAZ-PARQUE DARWIN","latitude":40.406176338771,"longitude":-3.654594948759},{"line":20,"secDetail":20,"orderDetail":"1","node":833,"distance":2291,"distancePreviousStop":282,"name":"PZA.CORR.ALONSO AGUILAR","latitude":40.407130672612,"longitude":-3.6578781115613},{"line":20,"secDetail":20,"orderDetail":"1","node":831,"distance":2540,"distancePreviousStop":249,"name":"AV.MORATALAZ N\u00ba 21","latitude":40.407727457133,"longitude":-3.6606534588578},{"line":20,"secDetail":20,"orderDetail":"1","node":829,"distance":2898,"distancePreviousStop":358,"name":"CORR.DIEGO VALDERRABANO-LITUANIA","latitude":40.409244445514,"longitude":-3.6600436603861},{"line":20,"secDetail":20,"orderDetail":"1","node":827,"distance":3166,"distancePreviousStop":268,"name":"C\u00ba VINATEROS-M30","latitude":40.410836387389,"longitude":-3.6589277771043},{"line":20,"secDetail":20,"orderDetail":"1","node":825,"distance":3721,"distancePreviousStop":555,"name":"ESTRELLA POLAR-PEZ AUSTRAL","latitude":40.411240474963,"longitude":-3.6654493060079},{"line":20,"secDetail":20,"orderDetail":"1","node":823,"distance":3994,"distancePreviousStop":273,"name":"LOS ASTROS-CRUZ DEL SUR","latitude":40.411483838631,"longitude":-3.6685513984199},{"line":20,"secDetail":20,"orderDetail":"1","node":821,"distance":4177,"distancePreviousStop":183,"name":"AV.NAZARET-JESUS APRENDIZ","latitude":40.411507312907,"longitude":-3.670720239285},{"line":20,"secDetail":20,"orderDetail":"1","node":819,"distance":4608,"distancePreviousStop":431,"name":"PZA.NI\u00d1O JESUS","latitude":40.41109380117,"longitude":-3.6752088968474},{"line":20,"secDetail":20,"orderDetail":"1","node":817,"distance":5112,"distancePreviousStop":504,"name":"HOSPITAL NI\u00d1O JESUS","latitude":40.414847064863,"longitude":-3.6773420536171},{"line":20,"secDetail":20,"orderDetail":"1","node":815,"distance":5331,"distancePreviousStop":219,"name":"AV.MENENDEZ PELAYO-A.SAINZ BARANDA","latitude":40.416734479563,"longitude":-3.6781035514948},{"line":20,"secDetail":20,"orderDetail":"1","node":194,"distance":5680,"distancePreviousStop":349,"name":"AV.MENENDEZ PELAYO-MENORCA","latitude":40.419764093892,"longitude":-3.6791936540699},{"line":20,"secDetail":20,"orderDetail":"1","node":2328,"distance":6067,"distancePreviousStop":387,"name":"O DONNELL-ALCALA","latitude":40.421369015356,"longitude":-3.6820282187205},{"line":20,"secDetail":20,"orderDetail":"1","node":160,"distance":6590,"distancePreviousStop":523,"name":"ALCALA-CLAUDIO COELLO","latitude":40.42041678464,"longitude":-3.6876530099512},{"line":20,"secDetail":20,"orderDetail":"1","node":161,"distance":6715,"distancePreviousStop":125,"name":"PUERTA DE ALCALA","latitude":40.420587758023,"longitude":-3.6891989125635},{"line":20,"secDetail":20,"orderDetail":"1","node":69,"distance":7115,"distancePreviousStop":400,"name":"PZA.DE CIBELES","latitude":40.419696944052,"longitude":-3.6935393486955},{"line":20,"secDetail":20,"orderDetail":"1","node":5446,"distance":7519,"distancePreviousStop":404,"name":"ALCALA-GRAN VIA","latitude":40.418516895972,"longitude":-3.698009875589},{"line":20,"secDetail":20,"orderDetail":"1","node":95,"distance":7964,"distancePreviousStop":445,"name":"PUERTA DEL SOL","latitude":40.416894385199,"longitude":-3.7026206219596},{"line":22,"secDetail":10,"orderDetail":"1","node":5128,"distance":0,"distancePreviousStop":0,"name":"PZA.DE LEGAZPI-BOLIVAR","latitude":40.39116750405,"longitude":-3.6947193678646},{"line":22,"secDetail":10,"orderDetail":"1","node":1126,"distance":814,"distancePreviousStop":814,"name":"AV.CORDOBA-ANTONIO LOPEZ","latitude":40.386231786203,"longitude":-3.6990042425946},{"line":22,"secDetail":10,"orderDetail":"1","node":1128,"distance":1227,"distancePreviousStop":413,"name":"AV.CORDOBA-TOMELLOSO","latitude":40.382617087716,"longitude":-3.6978594748493},{"line":22,"secDetail":10,"orderDetail":"1","node":1130,"distance":1409,"distancePreviousStop":182,"name":"AV.CORDOBA-SOCUELLAMOS","latitude":40.381016358654,"longitude":-3.697383513058},{"line":22,"secDetail":10,"orderDetail":"1","node":1132,"distance":1925,"distancePreviousStop":516,"name":"AV.CORDOBA-HOSPITAL 12 DE OCTUBRE","latitude":40.37652079743,"longitude":-3.6959000221335},{"line":22,"secDetail":10,"orderDetail":"1","node":5378,"distance":2095,"distancePreviousStop":170,"name":"AV.ANDALUCIA-GTA.MALAGA","latitude":40.375028088395,"longitude":-3.6954370417967},{"line":22,"secDetail":10,"orderDetail":"1","node":1135,"distance":2618,"distancePreviousStop":523,"name":"AV.ANDALUCIA-AV.POBLADOS","latitude":40.370374684334,"longitude":-3.6947295947069},{"line":22,"secDetail":10,"orderDetail":"1","node":1137,"distance":2892,"distancePreviousStop":274,"name":"AV.ANDALUCIA-AV.DE LOS ROSALES","latitude":40.367925374635,"longitude":-3.6945395473818},{"line":22,"secDetail":10,"orderDetail":"1","node":1172,"distance":3715,"distancePreviousStop":823,"name":"AV.ANDALUCIA-VERBENA DE LA PALOMA","latitude":40.360543162093,"longitude":-3.6936758961237},{"line":22,"secDetail":10,"orderDetail":"1","node":4662,"distance":3922,"distancePreviousStop":207,"name":"AV.ANDALUCIA-DULZURA","latitude":40.358688483023,"longitude":-3.6934790581923},{"line":22,"secDetail":10,"orderDetail":"1","node":1174,"distance":4236,"distancePreviousStop":314,"name":"AV.ANDALUCIA-BOHEMIOS","latitude":40.355860738978,"longitude":-3.6932969950419},{"line":22,"secDetail":10,"orderDetail":"1","node":4664,"distance":4589,"distancePreviousStop":353,"name":"AV.ANDALUCIA-ANOETA","latitude":40.352689965005,"longitude":-3.6932291931129},{"line":22,"secDetail":10,"orderDetail":"1","node":1790,"distance":4844,"distancePreviousStop":255,"name":"ALCOCER-VILLAVERDE CRUCE","latitude":40.351150115541,"longitude":-3.6946146961814},{"line":22,"secDetail":10,"orderDetail":"1","node":1788,"distance":5148,"distancePreviousStop":304,"name":"ALCOCER-VIRGEN DESAMPARADOS","latitude":40.349995398319,"longitude":-3.6978669308375},{"line":22,"secDetail":10,"orderDetail":"1","node":1191,"distance":5462,"distancePreviousStop":314,"name":"ALCOCER-LITOS","latitude":40.349768713072,"longitude":-3.7010874521541},{"line":22,"secDetail":10,"orderDetail":"1","node":1193,"distance":5877,"distancePreviousStop":415,"name":"ALCOCER-AV.REAL DE PINTO","latitude":40.350045701428,"longitude":-3.7059075526512},{"line":22,"secDetail":10,"orderDetail":"1","node":1195,"distance":6230,"distancePreviousStop":353,"name":"DR.PEREZ DOMINGUEZ-AV.REAL DE PINTO","latitude":40.3470321283,"longitude":-3.7066532608048},{"line":22,"secDetail":10,"orderDetail":"1","node":5154,"distance":6500,"distancePreviousStop":270,"name":"P\u00ba ALBERTO PALACIOS-PZA.AGATA","latitude":40.34650098548,"longitude":-3.7095324885537},{"line":22,"secDetail":10,"orderDetail":"1","node":2179,"distance":6638,"distancePreviousStop":138,"name":"P\u00ba ALBERTO PALACIOS-ALADIERNA","latitude":40.346256931293,"longitude":-3.7111312675247},{"line":22,"secDetail":10,"orderDetail":"1","node":2181,"distance":6965,"distancePreviousStop":327,"name":"P\u00ba ALBERTO PALACIOS-JUAN PE\u00d1ALVER","latitude":40.344178693392,"longitude":-3.7135937914883},{"line":22,"secDetail":10,"orderDetail":"1","node":2183,"distance":7476,"distancePreviousStop":511,"name":"P\u00ba ALBERTO PALACIOS-P\u00ba FERROVIARIOS","latitude":40.34332497048,"longitude":-3.716163305461},